$GPGSV,4,1,13,03,05,028,,28,45,153,31,07,33,063,32,08,75,053,28*79
$GPGSV,4,2,13,10,57,237,28,13,06,108,,15,26,293,,19,09,054,*77
$GPGSV,4,3,13,26,10,292,24,21,07,326,,25,14,066,29,24,14,285,*70
$GPGSV,4,4,13,27,17,247,23*48
$GPGGA,153048.9,5006.244929,N,01423.336315,E,1,04,2.3,260.0,M,,,,*0A
$GPRMC,153048.9,A,5006.244929,N,01423.336315,E,1.9,121.4,220409,,,A*69
$GPGSA,A,3,28,07,08,10,,,,,,,,,5.0,2.3,4.4*32
$GPVTG,121.4,T,,M,1.9,N,3.5,K*68
$GPGSV,4,1,13,03,05,028,,28,45,153,28,07,33,063,29,08,75,053,28*7B
$GPGSV,4,2,13,10,57,237,28,13,06,108,,15,26,293,,19,09,054,*77
$GPGSV,4,3,13,26,10,292,24,21,07,326,,25,14,066,28,24,14,285,*71
$GPGSV,4,4,13,27,17,247,22*49
$GPGGA,153049.9,5006.242088,N,01423.352529,E,1,06,1.6,285.5,M,,,,*0E
$GPRMC,153049.9,A,5006.242088,N,01423.352529,E,,,220409,,,A*69
$GPGSA,A,3,28,07,08,10,25,27,,,,,,,2.6,1.6,2.0*35
$GPVTG,,T,,M,0.0,N,0.0,K*4E
$GPGSV,4,1,13,03,05,028,,28,44,150,31,07,32,061,30,08,74,056,28*7E
$GPGSV,4,2,13,10,58,236,27,13,05,108,,15,27,292,,19,08,054,*74
$GPGSV,4,3,13,26,11,291,24,21,07,326,,25,14,066,27,24,15,284,*7C
$GPGSV,4,4,13,27,18,246,22*47
$GPGGA,153050.9,5006.242324,N,01423.350311,E,1,06,1.6,281.5,M,,,,*08
$GPRMC,153050.9,A,5006.242324,N,01423.350311,E,,,220409,,,A*6B
$GPGSA,A,3,28,07,08,10,25,255,,,,,,,2.6,1.6,2.0*02
$GPVTG,,T,,M,0.0,N,0.0,K*4E
$GPGSV,4,1,13,03,05,028,,28,44,150,27,07,32,061,29,08,74,056,26*7F
$GPGSV,4,2,13,10,58,236,30,13,05,108,,15,27,292,21,19,08,054,*71
$GPGSV,4,3,13,26,11,291,21,21,07,326,,25,14,066,27,24,15,284,*79
$GPGSV,4,4,13,27,18,246,21*44
$GPGGA,153052.0,5006.240237,N,01423.355763,E,1,07,1.4,294.5,M,,,,*01
$GPRMC,153052.0,A,5006.240237,N,01423.355763,E,,,220409,,,A*65
$GPGSA,A,3,28,07,08,10,26,25,27,,,,,,2.2,1.4,1.6*32
$GPVTG,,T,,M,0.0,N,0.0,K*4E
$GPGSV,4,1,13,03,05,028,,28,44,150,26,07,32,061,32,08,74,056,26*74
$GPGSV,4,2,13,10,58,236,29,13,05,108,,15,27,292,21,19,08,054,*79
$GPGSV,4,3,13,26,11,291,21,21,07,326,,25,14,066,26,24,15,284,*78
$GPGSV,4,4,13,27,18,246,24*41
$GPGGA,153053.0,5006.241736,N,01423.355758,E,1,07,1.5,297.5,M,,,,*0F
$GPRMC,153053.0,A,5006.241736,N,01423.355758,E,,,220409,,,A*69
$GPGSA,A,3,28,07,08,10,25,27,255,,,,,,2.2,1.5,1.6*05
$GPVTG,,T,,M,0.0,N,0.0,K*4E
$GPGSV,4,1,13,03,05,028,,28,44,150,26,07,32,061,33,08,74,056,28*7B
$GPGSV,4,2,13,10,58,236,30,13,05,108,,15,27,292,21,19,08,054,19*79
$GPGSV,4,3,13,26,11,291,21,21,07,326,27,25,14,066,27,24,15,284,*7C
$GPGSV,4,4,13,27,18,247,21*45
$GPGGA,153054.0,5006.242148,N,01423.355677,E,1,07,1.5,297.0,M,,,,*0D
$GPRMC,153054.0,A,5006.242148,N,01423.355677,E,,,220409,,,A*6E
$GPGSA,A,3,28,07,08,10,25,27,255,,,,,,2.3,1.5,1.7*05
$GPVTG,,T,,M,0.0,N,0.0,K*4E
$GPGSV,4,1,13,03,05,028,,28,44,150,27,07,32,061,33,08,74,056,27*75
$GPGSV,4,2,13,10,58,236,28,13,05,108,,15,27,292,21,19,08,054,19*70
$GPGSV,4,3,13,26,11,291,21,21,07,326,24,25,14,066,27,24,15,284,*7F
$GPGSV,4,4,13,27,18,247,27*43
$GPGGA,153055.0,5006.238839,N,01423.363613,E,1,08,1.3,308.0,M,,,,*07
$GPRMC,153055.0,A,5006.238839,N,01423.363613,E,,,220409,,,A*6A
$GPGSA,A,3,28,07,08,10,21,25,27,255,,,,,2.2,1.3,1.7*01
$GPVTG,,T,,M,0.0,N,0.0,K*4E
$GPGSV,4,1,13,03,05,028,,28,44,150,29,07,32,061,31,08,74,056,30*7F
$GPGSV,4,2,13,10,58,236,30,13,05,108,,15,27,292,21,19,08,054,20*73
$GPGSV,4,3,13,26,11,291,21,21,07,326,23,25,14,066,28,24,15,284,*77
$GPGSV,4,4,13,27,18,247,22*46
$GPGGA,153056.0,5006.236860,N,01423.366706,E,1,08,1.3,310.0,M,,,,*0F
$GPRMC,153056.0,A,5006.236860,N,01423.366706,E,,,220409,,,A*6B
$GPGSA,A,3,28,07,08,10,21,25,27,255,,,,,2.2,1.3,1.7*01
$GPVTG,,T,,M,0.0,N,0.0,K*4E
$GPGSV,4,1,13,03,05,028,22,28,44,150,37,07,32,061,34,08,74,056,36*73
$GPGSV,4,2,13,10,58,236,32,13,05,108,,15,27,292,21,19,08,054,20*71
$GPGSV,4,3,13,26,11,291,21,21,07,326,21,25,14,066,30,24,15,284,*7C
$GPGSV,4,4,13,27,18,247,25*41
$GPGGA,153057.0,5006.238062,N,01423.363714,E,1,08,1.4,302.5,M,,,,*0D
$GPRMC,153057.0,A,5006.238062,N,01423.363714,E,,,220409,,,A*68
$GPGSA,A,3,28,07,08,10,21,25,27,255,,,,,2.2,1.4,1.7*06
$GPVTG,,T,,M,0.0,N,0.0,K*4E
$GPGSV,4,1,13,03,05,028,23,28,44,150,33,07,32,061,30,08,74,056,31*75
$GPGSV,4,2,13,10,58,234,35,13,05,108,,15,27,292,21,19,08,054,20*74
$GPGSV,4,3,13,26,11,291,21,21,07,326,22,25,14,066,22,24,15,284,*7C
$GPGSV,4,4,13,27,18,247,25*41
$GPGGA,153058.0,5006.237974,N,01423.362678,E,1,09,1.1,305.5,M,,,,*0A
$GPRMC,153058.0,A,5006.237974,N,01423.362678,E,,,220409,,,A*6C
$GPGSA,A,3,03,28,07,08,10,21,25,27,255,,,,1.9,1.1,1.5*0A
$GPVTG,,T,,M,0.0,N,0.0,K*4E
$GPGSV,4,1,13,03,05,028,23,28,44,150,32,07,32,061,31,08,74,056,33*77
$GPGSV,4,2,13,10,58,234,35,13,05,108,,15,27,292,21,19,08,054,20*74
$GPGSV,4,3,13,26,11,291,21,21,07,326,22,25,14,066,23,24,15,284,*7D
$GPGSV,4,4,13,27,18,247,24*40
$GPGGA,153059.0,5006.238064,N,01423.361285,E,1,08,1.1,303.5,M,,,,*0E
$GPRMC,153059.0,A,5006.238064,N,01423.361285,E,,,220409,,,A*6F
$GPGSA,A,3,03,28,07,08,10,25,27,255,,,,,2.0,1.1,1.6*00
$GPVTG,,T,,M,0.0,N,0.0,K*4E
$GPGSV,4,1,13,03,05,028,22,28,44,150,31,07,32,061,33,08,74,056,31*75
$GPGSV,4,2,13,10,58,234,34,13,05,108,,15,27,292,21,19,08,054,20*75
$GPGSV,4,3,13,26,11,291,21,21,07,326,20,25,14,066,22,24,15,284,*7E
$GPGSV,4,4,13,27,18,247,23*47
$GPGGA,153100.0,5006.237179,N,01423.362552,E,1,08,1.2,307.0,M,,,,*0D
$GPRMC,153100.0,A,5006.237179,N,01423.362552,E,,,220409,,,A*6E
$GPGSA,A,3,03,28,07,08,10,21,25,27,,,,,2.0,1.2,1.6*32
$GPVTG,,T,,M,0.0,N,0.0,K*4E
$GPGSV,4,1,13,03,05,028,24,28,44,150,31,07,32,061,32,08,74,056,33*70
$GPGSV,4,2,13,10,58,234,33,13,05,108,,15,27,292,21,19,08,054,20*72
$GPGSV,4,3,13,26,11,291,21,21,07,326,20,25,14,066,24,24,15,284,*78
$GPGSV,4,4,13,27,18,247,23*47
$GPGGA,153101.0,5006.236505,N,01423.363286,E,1,08,1.2,307.0,M,,,,*0D
$GPRMC,153101.0,A,5006.236505,N,01423.363286,E,,,220409,,,A*6E
$GPGSA,A,3,03,28,07,08,10,21,25,27,,,,,2.0,1.2,1.6*32
$GPVTG,,T,,M,0.0,N,0.0,K*4E
$GPGSV,4,1,13,03,05,028,25,28,44,150,37,07,32,061,29,08,74,056,31*7F
$GPGSV,4,2,13,10,58,234,36,13,05,108,,15,27,292,21,19,08,054,20*77
$GPGSV,4,3,13,26,11,291,21,21,07,326,20,25,14,066,22,24,15,284,*7E
$GPGSV,4,4,13,27,18,247,31*44
$GPGGA,153102.0,5006.236794,N,01423.359982,E,1,08,1.1,301.0,M,,,,*07
$GPRMC,153102.0,A,5006.236794,N,01423.359982,E,,,220409,,,A*61
$GPGSA,A,3,03,28,07,08,10,25,27,255,,,,,1.9,1.1,1.6*0A
$GPVTG,,T,,M,0.0,N,0.0,K*4E
$GPGSV,4,1,13,03,05,028,24,28,44,150,28,07,32,061,26,08,74,056,29*76
$GPGSV,4,2,13,10,58,234,34,13,05,108,,15,27,292,21,19,08,054,20*75
$GPGSV,4,3,13,26,11,291,21,21,07,326,20,25,14,066,26,24,15,284,*7A
$GPGSV,4,4,13,27,18,247,30*45
$GPGGA,153103.0,5006.236885,N,01423.357684,E,1,08,1.3,295.5,M,,,,*05
$GPRMC,153103.0,A,5006.236885,N,01423.357684,E,,,220409,,,A*68
$GPGSA,A,3,03,28,07,08,10,25,27,255,,,,,1.9,1.3,1.4*0A
$GPVTG,,T,,M,0.0,N,0.0,K*4E
$GPGSV,4,1,13,03,05,028,21,28,44,150,26,07,32,061,28,08,74,056,27*7D
$GPGSV,4,2,13,10,58,234,24,13,05,108,,15,27,292,21,19,08,054,20*74
$GPGSV,4,3,13,26,11,291,21,21,07,326,20,25,14,066,24,24,15,284,*78
$GPGSV,4,4,13,27,18,247,29*4D
$GPGGA,153104.0,5006.236908,N,01423.357045,E,1,08,1.3,293.5,M,,,,*0B
$GPRMC,153104.0,A,5006.236908,N,01423.357045,E,,,220409,,,A*60
$GPGSA,A,3,03,28,07,08,10,25,27,255,,,,,1.9,1.3,1.4*0A
$GPVTG,,T,,M,0.0,N,0.0,K*4E
$GPGSV,4,1,13,03,05,028,22,28,44,150,31,07,32,061,27,08,74,056,30*71
$GPGSV,4,2,13,10,58,234,30,13,05,108,,15,27,292,21,19,08,054,20*71
$GPGSV,4,3,13,26,11,291,21,21,07,326,20,25,14,066,26,24,15,284,*7A
$GPGSV,4,4,13,27,18,247,22*46
$GPGGA,153105.0,5006.237038,N,01423.357060,E,1,08,1.3,292.5,M,,,,*07
$GPRMC,153105.0,A,5006.237038,N,01423.357060,E,,,220409,,,A*6D
$GPGSA,A,3,03,28,07,08,10,25,27,255,,,,,2.0,1.3,1.5*01
$GPVTG,,T,,M,0.0,N,0.0,K*4E
$GPGSV,4,1,13,03,05,028,26,28,44,150,30,07,32,061,24,08,74,056,21*77
$GPGSV,4,2,13,10,58,234,25,13,05,108,,15,27,292,21,19,08,054,20*75
$GPGSV,4,3,13,26,11,291,21,21,07,326,21,25,14,066,29,24,15,284,*74
$GPGSV,4,4,13,27,18,247,21*45
$GPGGA,153106.0,5006.236933,N,01423.357483,E,1,08,1.1,293.0,M,,,,*08
$GPRMC,153106.0,A,5006.236933,N,01423.357483,E,,,220409,,,A*64
$GPGSA,A,3,03,28,07,08,10,21,25,27,,,,,2.1,1.1,1.7*31
$GPVTG,,T,,M,0.0,N,0.0,K*4E
$GPGSV,4,1,13,03,05,028,25,28,44,150,26,07,32,061,26,08,74,056,21*71
$GPGSV,4,2,13,10,58,234,25,13,05,108,,15,27,292,21,19,08,054,20*75
$GPGSV,4,3,13,26,11,291,21,21,07,326,27,25,14,066,32,24,15,284,*78
$GPGSV,4,4,13,27,18,247,24*40
$GPGGA,153107.0,5006.235736,N,01423.360224,E,1,08,1.1,296.5,M,,,,*0E
$GPRMC,153107.0,A,5006.235736,N,01423.360224,E,,,220409,,,A*62
$GPGSA,A,3,03,28,07,10,21,25,27,255,,,,,2.1,1.1,1.7*0B
$GPVTG,,T,,M,0.0,N,0.0,K*4E
$GPGSV,4,1,13,03,05,028,24,28,45,150,28,07,32,061,24,08,74,056,21*7D
$GPGSV,4,2,13,10,58,234,25,13,05,108,,15,27,292,21,19,08,054,20*75
$GPGSV,4,3,13,26,11,291,21,21,07,326,28,25,14,066,29,24,15,284,*7D
$GPGSV,4,4,13,27,18,247,24*40
$GPGGA,153108.0,5006.234886,N,01423.362155,E,1,08,1.1,299.5,M,,,,*0C
$GPRMC,153108.0,A,5006.234886,N,01423.362155,E,,,220409,,,A*6F
$GPGSA,A,3,03,28,07,08,10,21,25,27,,,,,2.1,1.1,1.8*3E
$GPVTG,,T,,M,0.0,N,0.0,K*4E
$GPGSV,4,1,13,03,05,028,25,28,45,150,26,07,32,061,28,08,74,056,21*7E
$GPGSV,4,2,13,10,58,234,27,13,05,108,,15,27,292,21,19,08,054,20*77
$GPGSV,4,3,13,26,11,291,21,21,07,326,26,25,14,066,29,24,15,284,*73
$GPGSV,4,4,13,27,18,247,22*46
$GPGGA,153109.0,5006.234262,N,01423.363472,E,1,08,1.2,301.0,M,,,,*0A
$GPRMC,153109.0,A,5006.234262,N,01423.363472,E,,,220409,,,A*6F
$GPGSA,A,3,03,28,07,10,21,25,27,255,,,,,2.2,1.2,1.8*04
$GPVTG,,T,,M,0.0,N,0.0,K*4E
$GPGSV,4,1,13,03,05,028,23,28,45,150,29,07,32,061,28,08,74,056,20*76
$GPGSV,4,2,13,10,58,234,28,13,05,108,,15,27,292,21,19,08,054,20*78
$GPGSV,4,3,13,26,11,291,21,21,07,326,26,25,14,066,27,24,15,284,*7D
$GPGSV,4,4,13,27,18,247,23*47
$GPGGA,153110.0,5006.233837,N,01423.364307,E,1,08,1.2,302.0,M,,,,*0E
$GPRMC,153110.0,A,5006.233837,N,01423.364307,E,,,220409,,,A*68
$GPGSA,A,3,03,28,07,08,10,21,25,27,,,,,2.2,1.2,1.9*3F
$GPVTG,,T,,M,0.0,N,0.0,K*4E
$GPGSV,4,1,13,03,05,028,22,28,45,150,27,07,32,061,26,08,74,056,22*75
$GPGSV,4,2,13,10,58,234,29,13,05,108,,15,27,292,21,19,08,054,20*79
$GPGSV,4,3,13,26,11,291,21,21,07,326,21,25,14,066,22,24,15,284,*7F
$GPGSV,4,4,13,27,18,247,29*4D
$GPGGA,153111.0,5006.233485,N,01423.363965,E,1,08,1.1,301.0,M,,,,*03
$GPRMC,153111.0,A,5006.233485,N,01423.363965,E,,,220409,,,A*65
$GPGSA,A,3,03,28,07,08,10,21,25,27,,,,,2.0,1.1,1.7*30
$GPVTG,,T,,M,0.0,N,0.0,K*4E
$GPGSV,4,1,13,03,05,028,22,28,45,150,26,07,32,061,28,08,74,056,23*7B
$GPGSV,4,2,13,10,58,234,27,13,05,108,,15,27,292,21,19,08,054,20*77
$GPGSV,4,3,13,26,11,291,21,21,07,326,23,25,14,066,22,24,15,284,*7D
$GPGSV,4,4,13,27,18,247,30*45
$GPGGA,153112.0,5006.233126,N,01423.363598,E,1,08,1.1,299.5,M,,,,*07
$GPRMC,153112.0,A,5006.233126,N,01423.363598,E,,,220409,,,A*64
$GPGSA,A,3,03,28,07,08,10,21,27,255,,,,,2.0,1.1,1.6*04
$GPVTG,,T,,M,0.0,N,0.0,K*4E
$GPGSV,4,1,13,03,05,028,21,28,45,150,31,07,32,061,27,08,74,056,30*73
$GPGSV,4,2,13,10,58,234,30,13,05,108,,15,27,292,,19,08,054,20*72
$GPGSV,4,3,13,26,11,291,,21,07,326,21,25,14,066,22,24,15,284,*7C
$GPGSV,4,4,13,27,18,247,27*43
$GPGGA,153113.0,5006.232794,N,01423.363694,E,1,08,1.1,299.0,M,,,,*02
$GPRMC,153113.0,A,5006.232794,N,01423.363694,E,,,220409,,,A*64
$GPGSA,A,3,03,28,07,08,10,21,27,255,,,,,1.9,1.1,1.5*0D
$GPVTG,,T,,M,0.0,N,0.0,K*4E
$GPGSV,4,1,13,03,05,028,25,28,45,150,31,07,32,061,27,08,74,056,31*76
$GPGSV,4,2,13,10,58,234,31,13,05,108,,15,27,292,,19,08,054,20*73
$GPGSV,4,3,13,26,11,291,,21,07,326,21,25,14,066,22,24,15,284,*7C
$GPGSV,4,4,13,27,18,247,26*42
$GPGGA,153114.0,5006.232703,N,01423.363477,E,1,08,1.2,298.0,M,,,,*06
$GPRMC,153114.0,A,5006.232703,N,01423.363477,E,,,220409,,,A*62
$GPGSA,A,3,03,28,07,08,10,27,255,255,,,,,2.0,1.2,1.6*36
$GPVTG,,T,,M,0.0,N,0.0,K*4E
$GPGSV,4,1,13,03,05,028,25,28,45,150,33,07,32,061,26,08,74,056,33*77
$GPGSV,4,2,13,10,58,234,34,13,05,108,,15,27,292,,19,08,054,20*76
$GPGSV,4,3,13,26,11,291,,21,07,326,23,25,14,066,22,24,15,284,*7E
$GPGSV,4,4,13,27,18,247,25*41
$GPGGA,153115.0,5006.232344,N,01423.363598,E,1,08,1.1,297.0,M,,,,*0C
$GPRMC,153115.0,A,5006.232344,N,01423.363598,E,,,220409,,,A*64
$GPGSA,A,3,03,28,07,08,10,21,27,255,,,,,2.0,1.1,1.6*04
$GPVTG,,T,,M,0.0,N,0.0,K*4E
$GPGSV,4,1,13,03,05,028,31,28,45,150,30,07,32,061,27,08,74,056,33*70
$GPGSV,4,2,13,10,58,234,34,13,05,108,,15,27,292,,19,08,054,20*76
$GPGSV,4,3,13,26,11,291,,21,07,326,22,25,14,066,22,24,15,284,*7F
$GPGSV,4,4,13,27,18,247,29*4D
$GPGGA,153116.0,5006.232200,N,01423.363452,E,1,08,1.2,294.5,M,,,,*0C
$GPRMC,153116.0,A,5006.232200,N,01423.363452,E,,,220409,,,A*61
$GPGSA,A,3,03,28,07,08,10,21,27,255,,,,,1.9,1.2,1.5*0E
$GPVTG,,T,,M,0.0,N,0.0,K*4E
$GPGSV,4,1,13,03,05,028,29,28,45,150,33,07,32,061,25,08,74,056,33*78
$GPGSV,4,2,13,10,58,234,35,13,04,108,,15,27,292,,19,08,054,*74
$GPGSV,4,3,13,26,11,291,,21,07,326,22,25,14,066,22,24,15,284,*7F
$GPGSV,4,4,13,27,18,247,30*45
$GPGGA,153117.0,5006.232014,N,01423.363362,E,1,08,1.2,292.5,M,,,,*08
$GPRMC,153117.0,A,5006.232014,N,01423.363362,E,,,220409,,,A*63
$GPGSA,A,3,03,28,07,08,10,27,255,255,,,,,1.9,1.2,1.5*3F
$GPVTG,,T,,M,0.0,N,0.0,K*4E
$GPGSV,4,1,13,03,05,028,31,28,45,150,33,07,32,061,26,08,74,056,34*75
$GPGSV,4,2,13,10,58,234,34,13,04,108,,15,27,292,,19,08,054,*75
$GPGSV,4,3,13,26,11,291,,21,07,326,20,25,14,066,22,24,15,284,*7D
$GPGSV,4,4,13,27,18,247,25*41
$GPGGA,153118.0,5006.227357,N,01423.371031,E,1,07,1.2,286.0,M,,,,*0E
$GPRMC,153118.0,A,5006.227357,N,01423.371031,E,2.7,139.0,220409,,,A*64
$GPGSA,A,3,03,28,07,08,10,21,27,,,,,,1.9,1.2,1.5*3C
$GPVTG,139.0,T,,M,2.7,N,5.0,K*6B
$GPGSV,4,1,13,03,05,028,33,28,45,150,36,07,32,061,30,08,74,056,31*70
$GPGSV,4,2,13,10,58,234,32,13,04,108,,15,27,292,,19,08,054,*73
$GPGSV,4,3,13,26,11,291,,21,07,326,20,25,13,066,22,24,15,284,*7A
$GPGSV,4,4,13,27,18,247,27*43
$GPGGA,153119.0,5006.227586,N,01423.371132,E,1,07,1.1,284.0,M,,,,*06
$GPRMC,153119.0,A,5006.227586,N,01423.371132,E,2.5,151.0,220409,,,A*61
$GPGSA,A,3,03,28,07,08,10,27,255,,,,,,1.9,1.1,1.5*0E
$GPVTG,151.0,T,,M,2.5,N,4.6,K*60
$GPGSV,4,1,13,03,05,028,26,28,45,150,38,07,32,061,31,08,74,056,31*7B
$GPGSV,4,2,13,10,58,234,32,13,04,108,,15,27,292,,19,08,054,*73
$GPGSV,4,3,13,26,11,291,,21,07,326,22,25,13,066,22,24,15,284,*78
$GPGSV,4,4,13,27,18,247,27*43
$GPGGA,153120.0,5006.227149,N,01423.371348,E,1,07,1.1,284.0,M,,,,*04
$GPRMC,153120.0,A,5006.227149,N,01423.371348,E,1.9,161.8,220409,,,A*67
$GPGSA,A,3,03,28,07,08,10,21,27,,,,,,1.9,1.1,1.6*3C
$GPVTG,161.8,T,,M,1.9,N,3.5,K*60
$GPGSV,4,1,13,03,05,028,23,28,45,150,33,07,32,061,30,08,74,056,32*77
$GPGSV,4,2,13,10,58,234,35,13,04,108,,15,27,292,,19,08,054,*74
$GPGSV,4,3,13,26,11,291,,21,07,326,20,25,13,066,22,24,15,284,*7A
$GPGSV,4,4,13,27,18,247,28*4C
$GPGGA,153121.0,5006.226588,N,01423.371770,E,1,07,1.1,283.5,M,,,,*00
$GPRMC,153121.0,A,5006.226588,N,01423.371770,E,1.9,149.0,220409,,,A*63
$GPGSA,A,3,03,28,07,08,10,21,27,,,,,,2.0,1.1,1.6*36
$GPVTG,149.0,T,,M,1.9,N,3.5,K*62
$GPGSV,4,1,13,03,05,028,23,28,45,150,32,07,32,061,32,08,74,056,35*73
$GPGSV,4,2,13,10,58,234,35,13,04,108,,15,27,292,,19,08,054,*74
$GPGSV,4,3,13,26,11,291,,21,07,326,20,25,13,066,22,24,15,284,*7A
$GPGSV,4,4,13,27,18,247,27*43
$GPGGA,153122.0,5006.226248,N,01423.372248,E,1,07,1.1,284.0,M,,,,*07
$GPRMC,153122.0,A,5006.226248,N,01423.372248,E,1.8,143.1,220409,,,A*6C
$GPGSA,A,3,28,07,08,10,21,27,255,,,,,,2.0,1.1,1.6*07
$GPVTG,143.1,T,,M,1.8,N,3.3,K*6E
$GPGSV,4,1,13,03,05,028,23,28,45,150,37,07,32,061,29,08,74,056,33*7A
$GPGSV,4,2,13,10,58,234,33,13,04,108,,15,27,292,,19,08,054,*72
$GPGSV,4,3,13,26,11,291,,21,07,326,20,25,13,066,22,24,15,284,*7A
$GPGSV,4,4,13,27,18,247,26*42
$GPGGA,153123.0,5006.226012,N,01423.372620,E,1,07,1.1,284.0,M,,,,*01
$GPRMC,153123.0,A,5006.226012,N,01423.372620,E,2.0,141.7,220409,,,A*65
$GPGSA,A,3,28,07,08,10,21,27,255,,,,,,2.1,1.1,1.7*07
$GPVTG,141.7,T,,M,2.0,N,3.6,K*64
$GPGSV,4,1,13,03,05,028,21,28,45,150,36,07,32,061,31,08,74,056,33*70
$GPGSV,4,2,13,10,58,234,34,13,04,108,,15,27,292,,19,08,053,*72
$GPGSV,4,3,13,26,11,291,,21,07,326,21,25,13,066,22,24,15,284,*7B
$GPGSV,4,4,13,27,18,247,26*42
$GPGGA,153124.0,5006.225698,N,01423.373083,E,1,07,1.1,283.5,M,,,,*0D
$GPRMC,153124.0,A,5006.225698,N,01423.373083,E,1.7,141.5,220409,,,A*6D
$GPGSA,A,3,03,28,07,08,10,21,27,,,,,,2.1,1.1,1.8*39
$GPVTG,141.5,T,,M,1.7,N,3.1,K*65
$GPGSV,4,1,13,03,05,028,28,28,45,150,35,07,32,061,33,08,74,056,36*7D
$GPGSV,4,2,13,10,58,234,33,13,04,108,,15,27,292,22,19,08,053,*75
$GPGSV,4,3,13,26,11,291,,21,07,326,21,25,13,066,22,24,15,284,*7B
$GPGSV,4,4,13,27,18,247,27*43
$GPGGA,153125.0,5006.225323,N,01423.373495,E,1,07,1.1,283.0,M,,,,*0F
$GPRMC,153125.0,A,5006.225323,N,01423.373495,E,2.3,141.9,220409,,,A*61
$GPGSA,A,3,03,28,07,08,10,27,255,,,,,,2.1,1.1,1.8*08
$GPVTG,141.9,T,,M,2.3,N,4.2,K*6A
$GPGSV,4,1,13,03,05,028,29,28,45,150,33,07,32,061,30,08,74,056,35*7A
$GPGSV,4,2,13,10,58,234,34,13,04,108,,15,27,292,24,19,08,053,*74
$GPGSV,4,3,13,26,11,291,,21,07,326,22,25,13,066,22,24,15,284,*78
$GPGSV,4,4,13,27,18,247,27*43
$GPGGA,153126.0,5006.224963,N,01423.374109,E,1,08,1.0,282.5,M,,,,*0E
$GPRMC,153126.0,A,5006.224963,N,01423.374109,E,1.9,140.2,220409,,,A*69
$GPGSA,A,3,03,28,07,08,10,15,21,27,,,,,1.8,1.0,1.5*3B
$GPVTG,140.2,T,,M,1.9,N,3.4,K*68
$GPGSV,4,1,13,03,05,028,34,28,45,150,36,07,32,061,31,08,74,056,36*71
$GPGSV,4,2,13,10,58,234,34,13,04,108,,15,27,293,25,19,08,053,*74
$GPGSV,4,3,13,26,11,291,,21,07,326,21,25,13,066,22,24,15,284,*7B
$GPGSV,4,4,13,27,18,247,28*4C
$GPGGA,153127.0,5006.224689,N,01423.374657,E,1,08,1.0,281.0,M,,,,*0E
$GPRMC,153127.0,A,5006.224689,N,01423.374657,E,2.2,145.0,220409,,,A*60
$GPGSA,A,3,03,28,07,08,10,15,21,27,,,,,1.8,1.0,1.5*3B
$GPVTG,145.0,T,,M,2.2,N,4.0,K*64
$GPGSV,4,1,13,03,05,028,35,28,45,150,37,07,32,061,29,08,74,056,35*7B
$GPGSV,4,2,13,10,58,234,33,13,04,108,,15,27,293,25,19,08,053,*73
$GPGSV,4,3,13,26,11,291,,21,07,324,22,25,13,066,22,24,15,284,*7A
$GPGSV,4,4,13,27,18,247,25*41
$GPGGA,153128.0,5006.224536,N,01423.375261,E,1,08,1.0,280.0,M,,,,*07
$GPRMC,153128.0,A,5006.224536,N,01423.375261,E,2.4,137.5,220409,,,A*6E
$GPGSA,A,3,03,28,07,08,10,15,21,27,,,,,1.8,1.0,1.5*3B
$GPVTG,137.5,T,,M,2.4,N,4.5,K*67
$GPGSV,4,1,13,03,05,028,28,28,45,150,37,07,32,061,29,08,74,056,36*74
$GPGSV,4,2,13,10,58,234,33,13,04,108,,15,27,293,25,19,08,053,*73
$GPGSV,4,3,13,26,11,291,,21,07,324,23,25,13,066,22,24,15,284,*7B
$GPGSV,4,4,13,27,18,247,29*4D
$GPGGA,153129.0,5006.224063,N,01423.376030,E,1,08,1.0,279.5,M,,,,*05
$GPRMC,153129.0,A,5006.224063,N,01423.376030,E,2.2,132.3,220409,,,A*6A
$GPGSA,A,3,03,28,07,08,10,15,21,27,,,,,1.8,1.0,1.5*3B
$GPVTG,132.3,T,,M,2.2,N,4.1,K*66
$GPGSV,4,1,13,03,05,028,32,28,45,150,36,07,32,061,27,08,74,056,36*70
$GPGSV,4,2,13,10,58,234,36,13,04,108,,15,27,293,25,19,08,053,*76
$GPGSV,4,3,13,26,11,291,,21,07,324,23,25,13,066,22,24,15,284,*7B
$GPGSV,4,4,13,27,18,247,28*4C
$GPGGA,153130.0,5006.223545,N,01423.376659,E,1,08,1.0,279.0,M,,,,*07
$GPRMC,153130.0,A,5006.223545,N,01423.376659,E,1.9,131.3,220409,,,A*66
$GPGSA,A,3,03,28,07,08,10,15,21,27,,,,,1.8,1.0,1.4*3A
$GPVTG,131.3,T,,M,1.9,N,3.6,K*6D
$GPGSV,4,1,13,03,05,028,31,28,45,150,35,07,32,061,27,08,74,056,36*70
$GPGSV,4,2,13,10,58,234,36,13,04,108,,15,27,293,25,19,08,053,*76
$GPGSV,4,3,13,26,11,291,,21,07,324,27,25,13,066,22,24,15,284,*7F
$GPGSV,4,4,13,27,18,247,28*4C
$GPGGA,153131.0,5006.222939,N,01423.377614,E,1,08,1.0,278.5,M,,,,*0C
$GPRMC,153131.0,A,5006.222939,N,01423.377614,E,1.8,137.0,220409,,,A*6D
$GPGSA,A,3,03,28,07,08,10,15,21,27,,,,,1.7,1.0,1.4*35
$GPVTG,137.0,T,,M,1.8,N,3.4,K*6B
$GPGSV,4,1,13,03,05,028,23,28,45,150,36,07,32,061,29,08,74,056,36*7E
$GPGSV,4,2,13,10,58,234,35,13,04,108,,15,27,293,25,19,08,053,*75
$GPGSV,4,3,13,26,11,291,,21,07,324,26,25,13,066,22,24,15,284,*7E
$GPGSV,4,4,13,27,18,247,26*42
$GPGGA,153132.0,5006.222459,N,01423.378429,E,1,08,1.0,278.5,M,,,,*07
$GPRMC,153132.0,A,5006.222459,N,01423.378429,E,1.5,133.4,220409,,,A*6B
$GPGSA,A,3,03,28,07,08,10,15,21,27,,,,,2.0,1.0,1.6*33
$GPVTG,133.4,T,,M,1.5,N,2.7,K*64
$GPGSV,4,1,13,03,05,028,26,28,45,150,36,07,32,061,28,08,74,056,36*7A
$GPGSV,4,2,13,10,58,234,35,13,04,108,,15,27,293,24,19,08,053,*74
$GPGSV,4,3,13,26,11,291,,21,07,324,24,25,13,066,22,24,15,284,*7C
$GPGSV,4,4,13,27,18,247,24*40
$GPGGA,153133.0,5006.221943,N,01423.379259,E,1,08,1.0,279.0,M,,,,*07
$GPRMC,153133.0,A,5006.221943,N,01423.379259,E,1.7,144.9,220409,,,A*60
$GPGSA,A,3,03,28,07,08,10,15,21,27,,,,,2.0,1.0,1.6*33
$GPVTG,144.9,T,,M,1.7,N,3.2,K*6F
$GPGSV,4,1,13,03,05,028,25,28,45,150,37,07,32,061,31,08,74,056,36*70
$GPGSV,4,2,13,10,58,234,33,13,04,108,,15,27,293,24,19,08,053,*72
$GPGSV,4,3,13,26,11,291,,21,07,324,26,25,13,066,22,24,15,284,*7E
$GPGSV,4,4,13,27,18,247,26*42
$GPGGA,153134.0,5006.221300,N,01423.380079,E,1,08,1.0,279.0,M,,,,*0B
$GPRMC,153134.0,A,5006.221300,N,01423.380079,E,1.4,135.9,220409,,,A*69
$GPGSA,A,3,03,28,07,08,10,15,21,27,,,,,1.9,1.0,1.6*39
$GPVTG,135.9,T,,M,1.4,N,2.5,K*6C
$GPGSV,4,1,13,03,05,028,28,28,45,150,37,07,32,061,28,08,74,056,36*75
$GPGSV,4,2,13,10,58,234,33,13,04,108,,15,27,293,25,19,08,053,*73
$GPGSV,4,3,13,26,11,291,,21,07,324,24,25,13,066,22,24,15,284,*7C
$GPGSV,4,4,13,27,18,247,28*4C
$GPGGA,153135.0,5006.220804,N,01423.380627,E,1,08,1.1,278.0,M,,,,*09
$GPRMC,153135.0,A,5006.220804,N,01423.380627,E,2.1,138.5,220409,,,A*6C
$GPGSA,A,3,03,28,07,08,10,15,21,27,,,,,1.9,1.1,1.6*38
$GPVTG,138.5,T,,M,2.1,N,3.8,K*67
$GPGSV,4,1,13,03,05,028,29,28,45,150,37,07,32,061,31,08,74,056,36*7C
$GPGSV,4,2,13,10,58,234,35,13,04,108,,15,27,293,25,19,08,053,*75
$GPGSV,4,3,13,26,11,291,,21,07,324,24,25,13,066,22,24,15,284,*7C
$GPGSV,4,4,13,27,18,247,26*42
$GPGGA,153136.0,5006.220269,N,01423.381341,E,1,08,1.0,278.0,M,,,,*0E
$GPRMC,153136.0,A,5006.220269,N,01423.381341,E,2.0,137.4,220409,,,A*65
$GPGSA,A,3,03,28,07,08,10,15,21,27,,,,,1.9,1.0,1.6*39
$GPVTG,137.4,T,,M,2.0,N,3.7,K*67
$GPGSV,4,1,13,03,05,028,33,28,45,150,32,07,32,061,27,08,74,056,32*71
$GPGSV,4,2,13,10,58,234,35,13,04,108,,15,27,293,27,19,08,053,*77
$GPGSV,4,3,13,26,11,291,,21,07,324,24,25,13,066,22,24,15,284,*7C
$GPGSV,4,4,13,27,18,247,26*42
$GPGGA,153137.0,5006.219959,N,01423.382075,E,1,08,1.1,277.5,M,,,,*01
$GPRMC,153137.0,A,5006.219959,N,01423.382075,E,2.0,139.3,220409,,,A*68
$GPGSA,A,3,03,28,07,08,10,15,21,27,,,,,1.8,1.1,1.4*3B
$GPVTG,139.3,T,,M,2.0,N,3.6,K*6F
$GPGSV,4,1,13,03,05,028,35,28,45,150,30,07,32,061,27,08,74,056,31*76
$GPGSV,4,2,13,10,57,234,32,13,04,108,,15,27,293,27,19,08,053,*7F
$GPGSV,4,3,13,26,11,291,,21,07,324,24,25,13,066,22,24,15,284,*7C
$GPGSV,4,4,13,27,18,247,28*4C
$GPGGA,153138.0,5006.219602,N,01423.382794,E,1,08,1.1,277.5,M,,,,*07
$GPRMC,153138.0,A,5006.219602,N,01423.382794,E,1.8,142.4,220409,,,A*6E
$GPGSA,A,3,03,28,07,08,10,15,21,27,,,,,1.8,1.1,1.4*3B
$GPVTG,142.4,T,,M,1.8,N,3.3,K*6A
$GPGSV,4,1,13,03,05,028,33,28,45,150,30,07,32,061,23,08,74,056,30*75
$GPGSV,4,2,13,10,57,234,29,13,04,108,,15,27,293,29,19,08,053,*7B
$GPGSV,4,3,13,26,11,291,,21,07,324,23,25,13,066,22,24,15,284,*7B
$GPGSV,4,4,13,27,18,247,25*41
$GPGGA,153139.0,5006.219213,N,01423.383549,E,1,08,1.0,277.0,M,,,,*05
$GPRMC,153139.0,A,5006.219213,N,01423.383549,E,1.8,150.9,220409,,,A*66
$GPGSA,A,3,03,28,07,08,10,15,21,27,,,,,1.7,1.0,1.3*32
$GPVTG,150.9,T,,M,1.8,N,3.4,K*63
$GPGSV,4,1,13,03,05,028,34,28,45,150,25,07,32,061,25,08,74,056,30*70
$GPGSV,4,2,13,10,57,234,27,13,04,108,,15,27,293,29,19,08,053,*75
$GPGSV,4,3,13,26,11,291,,21,07,324,25,25,13,066,22,24,15,284,*7D
$GPGSV,4,4,13,27,18,247,24*40
$GPGGA,153140.0,5006.218848,N,01423.384313,E,1,08,1.3,277.0,M,,,,*03
$GPRMC,153140.0,A,5006.218848,N,01423.384313,E,1.8,154.7,220409,,,A*69
$GPGSA,A,3,03,28,07,08,10,15,21,27,,,,,1.8,1.3,1.3*3E
$GPVTG,154.7,T,,M,1.8,N,3.3,K*6E
$GPGSV,4,1,13,03,05,028,34,28,45,150,25,07,31,061,23,08,74,056,29*7D
$GPGSV,4,2,13,10,57,234,27,13,04,108,,15,27,293,28,19,08,053,*74
$GPGSV,4,3,13,26,11,291,,21,07,324,25,25,13,066,22,24,15,284,*7D
$GPGSV,4,4,13,27,18,247,23*47
$GPGGA,153141.0,5006.218431,N,01423.385078,E,1,08,1.3,276.5,M,,,,*0B
$GPRMC,153141.0,A,5006.218431,N,01423.385078,E,1.8,152.2,220409,,,A*66
$GPGSA,A,3,03,28,07,08,10,15,21,27,,,,,1.9,1.3,1.4*38
$GPVTG,152.2,T,,M,1.8,N,3.3,K*6D
$GPGSV,4,1,13,03,05,028,33,28,45,150,31,07,31,061,29,08,74,056,33*7E
$GPGSV,4,2,13,10,57,234,25,13,04,108,,15,27,293,27,19,08,053,*79
$GPGSV,4,3,13,26,11,292,,21,07,324,26,25,13,066,22,24,15,284,*7D
$GPGSV,4,4,13,27,18,247,26*42
$GPGGA,153142.0,5006.218091,N,01423.385927,E,1,08,1.3,276.5,M,,,,*05
$GPRMC,153142.0,A,5006.218091,N,01423.385927,E,1.9,149.8,220409,,,A*69
$GPGSA,A,3,03,28,07,08,10,15,21,27,,,,,1.8,1.3,1.3*3E
$GPVTG,149.8,T,,M,1.9,N,3.5,K*6A
$GPGSV,4,1,13,03,05,028,36,28,45,150,35,07,31,061,26,08,74,056,36*75
$GPGSV,4,2,13,10,57,234,26,13,04,108,,15,27,293,28,19,08,053,*75
$GPGSV,4,3,13,26,11,292,,21,07,324,27,25,13,066,22,24,15,284,*7C
$GPGSV,4,4,13,27,18,247,25*41
$GPGGA,153143.0,5006.217613,N,01423.386853,E,1,08,1.2,276.0,M,,,,*02
$GPRMC,153143.0,A,5006.217613,N,01423.386853,E,2.0,150.5,220409,,,A*65
$GPGSA,A,3,03,28,07,08,10,15,21,27,,,,,1.8,1.2,1.3*3F
$GPVTG,150.5,T,,M,2.0,N,3.8,K*68
$GPGSV,4,1,13,03,05,028,37,28,45,150,37,07,31,063,28,08,74,056,35*79
$GPGSV,4,2,13,10,57,234,25,13,04,108,,15,27,293,28,19,08,053,*76
$GPGSV,4,3,13,26,11,292,,21,07,324,26,25,13,066,22,24,15,284,*7D
$GPGSV,4,4,13,27,18,247,23*47
$GPGGA,153144.0,5006.217264,N,01423.387658,E,1,08,1.2,274.5,M,,,,*02
$GPRMC,153144.0,A,5006.217264,N,01423.387658,E,2.1,154.2,220409,,,A*60
$GPGSA,A,3,03,28,07,08,10,15,21,27,,,,,1.8,1.2,1.2*3E
$GPVTG,154.2,T,,M,2.1,N,3.9,K*6B
$GPGSV,4,1,13,03,05,028,38,28,45,150,38,07,31,063,24,08,74,056,35*75
$GPGSV,4,2,13,10,57,234,25,13,04,108,,15,27,293,27,19,08,053,*79
$GPGSV,4,3,13,26,11,292,,21,07,324,27,25,13,066,22,24,15,284,*7C
$GPGSV,4,4,13,27,18,247,23*47
$GPGGA,153145.0,5006.216826,N,01423.388447,E,1,08,1.2,273.5,M,,,,*0A
$GPRMC,153145.0,A,5006.216826,N,01423.388447,E,2.1,151.6,220409,,,A*6E
$GPGSA,A,3,03,28,07,08,10,15,21,27,,,,,1.7,1.2,1.2*31
$GPVTG,151.6,T,,M,2.1,N,3.9,K*6A
$GPGSV,4,1,13,03,05,028,33,28,45,150,39,07,31,063,22,08,74,056,36*7A
$GPGSV,4,2,13,10,57,234,22,13,04,108,,15,27,293,25,19,08,053,*7C
$GPGSV,4,3,13,26,11,292,,21,07,324,29,25,13,066,22,24,15,284,*72
$GPGSV,4,4,13,27,18,247,22*46
$GPGGA,153146.0,5006.216338,N,01423.389121,E,1,08,1.1,273.5,M,,,,*0A
$GPRMC,153146.0,A,5006.216338,N,01423.389121,E,2.1,149.2,220409,,,A*60
$GPGSA,A,3,03,28,07,08,10,15,21,27,,,,,1.6,1.1,1.1*30
$GPVTG,149.2,T,,M,2.1,N,4.0,K*69
$GPGSV,4,1,13,03,05,028,26,28,45,150,36,07,31,063,27,08,74,056,37*75
$GPGSV,4,2,13,10,57,234,25,13,04,108,,15,27,293,24,19,08,053,*7A
$GPGSV,4,3,13,26,11,292,,21,07,324,26,25,13,066,22,24,15,284,*7D
$GPGSV,4,4,13,27,18,247,25*41
$GPGGA,153147.0,5006.215745,N,01423.390041,E,1,08,1.1,273.0,M,,,,*0C
$GPRMC,153147.0,A,5006.215745,N,01423.390041,E,2.0,148.2,220409,,,A*63
$GPGSA,A,3,03,28,07,08,10,15,21,27,,,,,1.6,1.1,1.2*33
$GPVTG,148.2,T,,M,2.0,N,3.7,K*69
$GPGSV,4,1,13,03,05,028,23,28,45,150,34,07,31,063,25,08,74,056,36*71
$GPGSV,4,2,13,10,57,234,34,13,04,108,,15,27,293,26,19,08,053,*78
$GPGSV,4,3,13,26,11,292,,21,07,324,24,25,13,066,22,24,15,284,*7F
$GPGSV,4,4,13,27,18,247,29*4D
$GPGGA,153148.0,5006.215237,N,01423.391304,E,1,08,1.1,273.5,M,,,,*05
$GPRMC,153148.0,A,5006.215237,N,01423.391304,E,2.0,138.1,220409,,,A*6B
$GPGSA,A,3,03,28,07,08,10,15,21,27,,,,,1.8,1.1,1.3*3C
$GPVTG,138.1,T,,M,2.0,N,3.6,K*6C
$GPGSV,4,1,13,03,05,028,24,28,45,150,35,07,31,063,27,08,74,056,36*75
$GPGSV,4,2,13,10,57,234,38,13,04,108,,15,27,293,27,19,08,053,*75
$GPGSV,4,3,13,26,11,292,,21,07,324,27,25,13,066,22,24,15,284,*7C
$GPGSV,4,4,13,27,18,247,34*41
$GPGGA,153149.0,5006.214835,N,01423.392641,E,1,08,1.1,274.5,M,,,,*0D
$GPRMC,153149.0,A,5006.214835,N,01423.392641,E,1.9,131.9,220409,,,A*6F
$GPGSA,A,3,03,28,07,08,10,15,21,27,,,,,1.8,1.1,1.4*3B
$GPVTG,131.9,T,,M,1.9,N,3.5,K*64
$GPGSV,4,1,13,03,05,028,24,28,45,150,36,07,31,063,29,08,74,056,36*78
$GPGSV,4,2,13,10,57,234,37,13,04,108,,15,27,293,26,19,08,053,*7B
$GPGSV,4,3,13,26,11,292,,21,07,324,25,25,13,066,22,24,15,284,*7E
$GPGSV,4,4,13,27,18,247,33*46
$GPGGA,153150.0,5006.214480,N,01423.394200,E,1,08,1.1,275.5,M,,,,*01
$GPRMC,153150.0,A,5006.214480,N,01423.394200,E,2.2,133.3,220409,,,A*62
$GPGSA,A,3,28,07,08,10,15,21,27,255,,,,,1.8,1.1,1.5*0B
$GPVTG,133.3,T,,M,2.2,N,4.0,K*66
$GPGSV,4,1,13,03,05,028,24,28,45,150,36,07,31,063,23,08,74,056,36*72
$GPGSV,4,2,13,10,57,234,37,13,04,108,,15,27,293,26,19,08,053,*7B
$GPGSV,4,3,13,26,11,292,,21,07,324,25,25,13,066,22,24,15,284,*7E
$GPGSV,4,4,13,27,18,247,30*45
$GPGGA,153151.0,5006.214098,N,01423.395347,E,1,08,1.1,276.0,M,,,,*08
$GPRMC,153151.0,A,5006.214098,N,01423.395347,E,2.0,129.1,220409,,,A*66
$GPGSA,A,3,28,07,08,10,15,21,27,255,,,,,2.0,1.1,1.6*03
$GPVTG,129.1,T,,M,2.0,N,3.7,K*6D
$GPGSV,4,1,13,03,05,028,24,28,45,150,35,07,31,063,27,08,73,056,36*72
$GPGSV,4,2,13,10,57,234,37,13,04,108,,15,27,293,25,19,08,053,*78
$GPGSV,4,3,13,26,11,292,,21,07,324,25,25,13,066,22,24,15,284,*7E
$GPGSV,4,4,13,27,18,247,27*43
$GPGGA,153152.0,5006.213698,N,01423.396157,E,1,08,1.4,275.5,M,,,,*09
$GPRMC,153152.0,A,5006.213698,N,01423.396157,E,1.7,121.1,220409,,,A*68
$GPGSA,A,3,28,07,08,10,15,21,27,255,,,,,2.7,1.4,2.3*07
$GPVTG,121.1,T,,M,1.7,N,3.1,K*67
$GPGSV,4,1,13,03,05,028,24,28,45,150,33,07,31,063,26,08,73,056,36*75
$GPGSV,4,2,13,10,57,234,37,13,04,108,,15,27,293,26,19,08,053,*7B
$GPGSV,4,3,13,26,11,292,,21,07,324,26,25,13,066,22,24,15,284,*7D
$GPGSV,4,4,13,27,18,247,31*44
$GPGGA,153153.0,5006.213432,N,01423.397339,E,1,08,1.3,275.5,M,,,,*06
$GPRMC,153153.0,A,5006.213432,N,01423.397339,E,1.7,115.3,220409,,,A*65
$GPGSA,A,3,28,07,08,10,15,21,27,255,,,,,2.5,1.3,2.1*00
$GPVTG,115.3,T,,M,1.7,N,3.2,K*61
$GPGSV,4,1,13,03,05,028,24,28,45,150,35,07,31,063,27,08,73,056,36*72
$GPGSV,4,2,13,10,57,234,37,13,04,108,,15,27,293,25,19,08,053,*78
$GPGSV,4,3,13,26,11,292,,21,07,324,26,25,13,066,22,24,15,284,*7D
$GPGSV,4,4,13,27,18,247,31*44
$GPGGA,153154.0,5006.213180,N,01423.398279,E,1,08,1.3,275.5,M,,,,*07
$GPRMC,153154.0,A,5006.213180,N,01423.398279,E,2.0,128.4,220409,,,A*69
$GPGSA,A,3,28,07,08,10,15,255,27,255,,,,,2.4,1.3,2.0*31
$GPVTG,128.4,T,,M,2.0,N,3.7,K*69
$GPGSV,4,1,13,03,05,028,24,28,45,150,34,07,31,063,26,08,73,056,36*72
$GPGSV,4,2,13,10,57,234,37,13,04,108,,15,27,293,27,19,08,053,*7A
$GPGSV,4,3,13,26,11,292,,21,07,324,25,25,13,066,22,24,15,284,*7E
$GPGSV,4,4,13,27,18,247,32*47
$GPGGA,153155.0,5006.212873,N,01423.399411,E,1,08,1.3,276.0,M,,,,*0D
$GPRMC,153155.0,A,5006.212873,N,01423.399411,E,1.9,121.7,220409,,,A*65
$GPGSA,A,3,28,07,08,10,15,21,27,255,,,,,2.4,1.3,2.0*00
$GPVTG,121.7,T,,M,1.9,N,3.6,K*68
$GPGSV,4,1,13,03,05,028,17,28,45,150,34,07,31,063,27,08,73,056,36*73
$GPGSV,4,2,13,10,57,234,37,13,04,108,,15,27,293,26,19,08,053,*7B
$GPGSV,4,3,13,26,11,292,,21,07,324,28,25,13,066,22,24,15,284,*73
$GPGSV,4,4,13,27,18,247,26*42
$GPGGA,153156.0,5006.212408,N,01423.400074,E,1,07,1.2,275.5,M,,,,*06
$GPRMC,153156.0,A,5006.212408,N,01423.400074,E,2.4,133.0,220409,,,A*6C
$GPGSA,A,3,28,07,08,10,15,255,27,,,,,,2.3,1.2,2.0*05
$GPVTG,133.0,T,,M,2.4,N,4.4,K*67
$GPGSV,4,1,13,03,05,028,17,28,45,150,35,07,31,063,29,08,73,056,36*7C
$GPGSV,4,2,13,10,57,234,37,13,04,108,,15,27,293,27,19,08,053,*7A
$GPGSV,4,3,13,26,11,292,,21,07,324,30,25,13,066,22,24,15,284,*7A
$GPGSV,4,4,13,27,18,247,27*43
$GPGGA,153157.0,5006.211812,N,01423.400753,E,1,07,1.2,275.5,M,,,,*01
$GPRMC,153157.0,A,5006.211812,N,01423.400753,E,2.4,136.5,220409,,,A*6B
$GPGSA,A,3,28,07,08,10,15,255,27,,,,,,2.3,1.2,1.9*0F
$GPVTG,136.5,T,,M,2.4,N,4.4,K*67
$GPGSV,4,1,13,03,05,028,16,28,45,150,35,07,31,063,26,08,73,056,36*72
$GPGSV,4,2,13,10,57,234,36,13,04,108,,15,27,293,27,19,08,053,*7B
$GPGSV,4,3,13,26,11,292,,21,07,324,28,25,13,066,22,24,15,284,*73
$GPGSV,4,4,13,27,18,247,26*42
$GPGGA,153158.0,5006.211309,N,01423.401407,E,1,08,1.1,275.0,M,,,,*05
$GPRMC,153158.0,A,5006.211309,N,01423.401407,E,2.5,135.5,220409,,,A*64
$GPGSA,A,3,03,28,07,08,10,15,255,27,,,,,2.0,1.1,1.6*03
$GPVTG,135.5,T,,M,2.5,N,4.6,K*67
$GPGSV,4,1,13,03,05,028,16,28,45,150,36,07,31,063,26,08,73,056,36*71
$GPGSV,4,2,13,10,57,234,36,13,04,108,,15,27,293,28,19,08,053,*74
$GPGSV,4,3,13,26,11,292,,21,07,324,27,25,13,066,22,24,15,284,26*78
$GPGSV,4,4,13,27,18,247,26*42
$GPGGA,153159.0,5006.210816,N,01423.402187,E,1,08,1.1,274.5,M,,,,*0A
$GPRMC,153159.0,A,5006.210816,N,01423.402187,E,2.0,124.4,220409,,,A*6B
$GPGSA,A,3,28,07,08,10,15,21,27,255,,,,,2.0,1.1,1.7*02
$GPVTG,124.4,T,,M,2.0,N,3.8,K*6A
$GPGSV,4,1,13,03,05,028,16,28,45,150,36,07,31,063,22,08,73,056,37*74
$GPGSV,4,2,13,10,57,234,36,13,04,108,,15,27,293,26,19,08,053,*7A
$GPGSV,4,3,13,26,11,292,,21,07,324,26,25,13,066,22,24,15,284,25*7A
$GPGSV,4,4,13,27,18,247,27*43
$GPGGA,153200.0,5006.210462,N,01423.403213,E,1,09,1.0,274.0,M,,,,*00
$GPRMC,153200.0,A,5006.210462,N,01423.403213,E,2.0,110.4,220409,,,A*63
$GPGSA,A,3,28,07,08,10,15,21,24,27,255,,,,1.8,1.0,1.5*0C
$GPVTG,110.4,T,,M,2.0,N,3.6,K*63
$GPGSV,4,1,13,03,05,028,16,28,45,150,37,07,31,063,23,08,73,056,37*74
$GPGSV,4,2,13,10,57,234,36,13,04,108,,15,27,293,26,19,08,053,*7A
$GPGSV,4,3,13,26,11,292,,21,07,324,27,25,13,066,22,24,15,284,24*7A
$GPGSV,4,4,13,27,18,247,30*45
$GPGGA,153201.0,5006.210122,N,01423.404475,E,1,09,1.1,273.5,M,,,,*02
$GPRMC,153201.0,A,5006.210122,N,01423.404475,E,2.1,107.7,220409,,,A*66
$GPGSA,A,3,28,07,08,10,15,21,24,27,255,,,,2.0,1.1,1.7*04
$GPVTG,107.7,T,,M,2.1,N,3.8,K*69
$GPGSV,4,1,13,03,05,028,16,28,45,150,38,07,31,063,27,08,73,056,37*7F
$GPGSV,4,2,13,10,57,234,32,13,04,108,,15,27,293,26,19,08,053,*7E
$GPGSV,4,3,13,26,11,292,,21,07,324,26,25,13,066,22,24,15,284,24*7B
$GPGSV,4,4,13,27,18,247,34*41
$GPGGA,153202.0,5006.209856,N,01423.406054,E,1,09,1.2,274.0,M,,,,*07
$GPRMC,153202.0,A,5006.209856,N,01423.406054,E,2.0,110.9,220409,,,A*6B
$GPGSA,A,3,28,07,08,10,15,21,24,27,255,,,,2.1,1.2,1.7*06
$GPVTG,110.9,T,,M,2.0,N,3.7,K*6F
$GPGSV,4,1,13,03,05,028,16,28,45,150,37,07,31,063,27,08,73,056,36*71
$GPGSV,4,2,13,10,57,234,34,13,04,108,,15,27,293,25,19,08,053,*7B
$GPGSV,4,3,13,26,11,292,,21,07,324,26,25,13,066,22,24,15,284,22*7D
$GPGSV,4,4,13,27,18,247,28*4C
$GPGGA,153203.0,5006.209464,N,01423.407055,E,1,09,1.2,273.5,M,,,,*09
$GPRMC,153203.0,A,5006.209464,N,01423.407055,E,2.0,120.1,220409,,,A*6C
$GPGSA,A,3,28,07,08,10,15,21,24,27,255,,,,2.1,1.2,1.7*06
$GPVTG,120.1,T,,M,2.0,N,3.6,K*65
$GPGSV,4,1,13,03,05,028,16,28,45,150,38,07,31,063,24,08,73,056,37*7C
$GPGSV,4,2,13,10,57,234,36,13,04,108,,15,27,293,25,19,08,053,*79
$GPGSV,4,3,13,26,11,292,,21,07,324,24,25,13,066,22,24,15,284,24*79
$GPGSV,4,4,13,27,18,247,25*41
$GPGGA,153204.0,5006.209061,N,01423.408000,E,1,09,1.2,273.0,M,,,,*05
$GPRMC,153204.0,A,5006.209061,N,01423.408000,E,2.0,115.4,220409,,,A*66
$GPGSA,A,3,28,07,08,10,15,21,24,27,255,,,,2.2,1.2,1.8*0A
$GPVTG,115.4,T,,M,2.0,N,3.7,K*67
$GPGSV,4,1,13,03,05,028,16,28,45,150,37,07,31,063,23,08,73,056,37*74
$GPGSV,4,2,13,10,57,234,36,13,04,108,,15,27,293,25,19,08,053,*79
$GPGSV,4,3,13,26,11,292,,21,07,324,25,25,13,066,22,24,15,284,23*7F
$GPGSV,4,4,13,27,18,247,27*43
$GPGGA,153205.0,5006.208641,N,01423.408966,E,1,08,1.2,272.0,M,,,,*08
$GPRMC,153205.0,A,5006.208641,N,01423.408966,E,1.8,109.9,220409,,,A*60
$GPGSA,A,3,28,07,08,10,15,21,24,27,,,,,2.2,1.2,1.9*39
$GPVTG,109.9,T,,M,1.8,N,3.4,K*6F
$GPGSV,4,1,13,03,05,028,16,28,45,150,37,07,31,063,26,08,73,056,37*71
$GPGSV,4,2,13,10,57,234,35,13,04,108,,15,27,293,23,19,08,053,*7C
$GPGSV,4,3,13,26,11,292,,21,07,324,25,25,13,066,22,24,15,284,24*78
$GPGSV,4,4,13,27,18,247,31*44
$GPGGA,153206.0,5006.208196,N,01423.410113,E,1,08,1.1,271.5,M,,,,*00
$GPRMC,153206.0,A,5006.208196,N,01423.410113,E,1.6,109.1,220409,,,A*6B
$GPGSA,A,3,28,07,08,10,15,21,24,27,,,,,2.2,1.1,1.8*3B
$GPVTG,109.1,T,,M,1.6,N,3.0,K*6D
$GPGSV,4,1,13,03,05,028,16,28,45,150,36,07,31,063,28,08,73,056,37*7E
$GPGSV,4,2,13,10,57,234,35,13,04,108,,15,27,293,22,19,08,053,*7D
$GPGSV,4,3,13,26,11,292,,21,07,324,24,25,13,066,22,24,15,284,26*7B
$GPGSV,4,4,13,27,18,247,28*4C
$GPGGA,153207.0,5006.207799,N,01423.411164,E,1,08,1.1,271.0,M,,,,*03
$GPRMC,153207.0,A,5006.207799,N,01423.411164,E,1.5,109.9,220409,,,A*66
$GPGSA,A,3,28,07,08,10,15,21,24,27,,,,,2.2,1.1,1.8*3B
$GPVTG,109.9,T,,M,1.5,N,2.7,K*60
$GPGSV,4,1,13,03,05,028,16,28,45,150,36,07,31,063,25,08,73,056,37*73
$GPGSV,4,2,13,10,57,234,35,13,04,108,,15,27,293,25,19,08,053,*7A
$GPGSV,4,3,13,26,11,292,,21,07,324,26,25,13,066,22,24,15,284,26*79
$GPGSV,4,4,13,27,18,247,26*42
$GPGGA,153208.0,5006.207439,N,01423.412124,E,1,08,1.1,270.5,M,,,,*06
$GPRMC,153208.0,A,5006.207439,N,01423.412124,E,1.6,112.8,220409,,,A*6F
$GPGSA,A,3,28,07,08,10,15,21,24,27,,,,,2.1,1.1,1.7*37
$GPVTG,112.8,T,,M,1.6,N,3.0,K*6E
$GPGSV,4,1,13,03,05,028,16,28,45,150,35,07,31,063,25,08,73,056,34*73
$GPGSV,4,2,13,10,57,234,33,13,04,108,,15,27,293,23,19,08,053,*7A
$GPGSV,4,3,13,26,11,292,,21,07,324,28,25,13,066,22,24,15,284,25*74
$GPGSV,4,4,13,27,18,247,24*40
$GPGGA,153209.0,5006.207120,N,01423.412929,E,1,08,1.1,270.0,M,,,,*0A
$GPRMC,153209.0,A,5006.207120,N,01423.412929,E,1.9,125.4,220409,,,A*61
$GPGSA,A,3,28,07,08,10,15,255,24,27,,,,,2.0,1.1,1.6*06
$GPVTG,125.4,T,,M,1.9,N,3.5,K*6C
$GPGSV,4,1,13,03,05,028,16,28,45,150,28,07,31,063,22,08,73,056,29*74
$GPGSV,4,2,13,10,57,234,32,13,04,108,,15,27,293,23,19,08,053,*7B
$GPGSV,4,3,13,26,11,292,,21,07,324,27,25,13,066,22,24,15,284,21*7F
$GPGSV,4,4,13,27,18,247,24*40
$GPGGA,153210.0,5006.206874,N,01423.413744,E,1,08,1.2,269.5,M,,,,*01
$GPRMC,153210.0,A,5006.206874,N,01423.413744,E,1.3,97.9,220409,,,A*5B
$GPGSA,A,3,28,07,08,10,15,21,24,27,,,,,1.9,1.2,1.5*3D
$GPVTG,97.9,T,,M,1.3,N,2.4,K*53
$GPGSV,4,1,13,03,05,028,16,28,45,150,29,07,31,063,24,08,73,056,31*7A
$GPGSV,4,2,13,10,57,234,33,13,04,108,,15,27,293,21,19,08,053,*78
$GPGSV,4,3,13,26,11,292,,21,07,324,24,25,13,066,22,24,15,284,24*79
$GPGSV,4,4,13,27,18,247,23*47
$GPGGA,153211.0,5006.206715,N,01423.414402,E,1,08,1.1,269.0,M,,,,*08
$GPRMC,153211.0,A,5006.206715,N,01423.414402,E,1.4,98.7,220409,,,A*52
$GPGSA,A,3,28,07,08,10,15,21,24,27,,,,,1.9,1.1,1.5*3E
$GPVTG,98.7,T,,M,1.4,N,2.6,K*57
$GPGSV,4,1,13,03,05,028,16,28,45,150,30,07,31,063,23,08,73,056,32*76
$GPGSV,4,2,13,10,57,234,34,13,04,108,,15,27,293,24,19,08,053,*7A
$GPGSV,4,3,13,26,11,292,,21,07,324,22,25,13,066,22,24,15,284,24*7F
$GPGSV,4,4,13,27,18,247,24*40
$GPGGA,153212.0,5006.206474,N,01423.415046,E,1,08,1.2,268.5,M,,,,*0D
$GPRMC,153212.0,A,5006.206474,N,01423.415046,E,1.5,105.2,220409,,,A*61
$GPGSA,A,3,28,07,08,10,15,21,24,27,,,,,2.0,1.2,1.6*34
$GPVTG,105.2,T,,M,1.5,N,2.7,K*67
$GPGSV,4,1,13,03,05,028,16,28,45,150,27,07,31,063,26,08,73,056,34*73
$GPGSV,4,2,13,10,57,234,34,13,04,108,,15,27,293,23,19,08,053,*7D
$GPGSV,4,3,13,26,11,292,,21,07,324,22,25,13,066,22,24,15,284,24*7F
$GPGSV,4,4,13,27,18,247,26*42
$GPGGA,153213.0,5006.206265,N,01423.415735,E,1,08,1.3,268.5,M,,,,*08
$GPRMC,153213.0,A,5006.206265,N,01423.415735,E,1.4,96.2,220409,,,A*5F
$GPGSA,A,3,28,07,08,10,15,21,24,27,,,,,2.1,1.3,1.7*35
$GPVTG,96.2,T,,M,1.4,N,2.5,K*5F
$GPGSV,4,1,13,03,05,028,16,28,45,150,31,07,31,063,28,08,73,056,37*79
$GPGSV,4,2,13,10,57,234,33,13,04,108,,15,27,293,23,19,08,053,*7A
$GPGSV,4,3,13,26,11,292,,21,07,324,25,25,13,066,22,24,15,284,27*7B
$GPGSV,4,4,13,27,18,247,27*43
$GPGGA,153214.0,5006.205958,N,01423.416580,E,1,08,1.3,268.5,M,,,,*06
$GPRMC,153214.0,A,5006.205958,N,01423.416580,E,1.2,108.0,220409,,,A*63
$GPGSA,A,3,28,07,08,10,15,21,24,27,,,,,2.1,1.3,1.6*34
$GPVTG,108.0,T,,M,1.2,N,2.3,K*6B
$GPGSV,4,1,13,03,05,028,16,28,45,150,34,07,31,063,28,08,73,056,37*7C
$GPGSV,4,2,13,10,57,234,34,13,04,108,,15,27,293,22,19,08,053,*7C
$GPGSV,4,3,13,26,11,292,,21,07,324,25,25,13,066,22,24,15,284,28*74
$GPGSV,4,4,13,27,18,247,28*4C
$GPGGA,153215.0,5006.205624,N,01423.417380,E,1,08,1.2,268.5,M,,,,*05
$GPRMC,153215.0,A,5006.205624,N,01423.417380,E,1.5,113.1,220409,,,A*6D
$GPGSA,A,3,28,07,08,10,15,21,24,27,,,,,2.0,1.2,1.6*34
$GPVTG,113.1,T,,M,1.5,N,2.8,K*6C
$GPGSV,4,1,13,03,05,028,16,28,45,150,37,07,31,063,29,08,73,056,36*7F
$GPGSV,4,2,13,10,57,234,33,13,04,108,,15,27,293,22,19,08,053,*7B
$GPGSV,4,3,13,26,11,292,,21,07,324,20,25,13,066,22,24,15,284,27*7E
$GPGSV,4,4,13,27,18,247,30*45
$GPGGA,153216.0,5006.205189,N,01423.418401,E,1,08,1.2,269.0,M,,,,*03
$GPRMC,153216.0,A,5006.205189,N,01423.418401,E,2.0,128.9,220409,,,A*69
$GPGSA,A,3,28,07,08,10,21,24,27,255,,,,,2.0,1.2,1.6*02
$GPVTG,128.9,T,,M,2.0,N,3.7,K*64
$GPGSV,4,1,13,03,05,028,16,28,45,150,36,07,31,063,29,08,73,056,37*7F
$GPGSV,4,2,13,10,57,234,35,13,04,108,,15,27,293,24,19,08,053,*7B
$GPGSV,4,3,13,26,11,292,,21,07,324,20,25,13,066,22,24,15,284,26*7F
$GPGSV,4,4,13,27,18,247,29*4D
$GPGGA,153217.0,5006.204724,N,01423.419301,E,1,08,1.2,269.5,M,,,,*01
$GPRMC,153217.0,A,5006.204724,N,01423.419301,E,2.1,129.9,220409,,,A*6E
$GPGSA,A,3,28,07,08,10,15,24,27,255,,,,,2.0,1.2,1.6*05
$GPVTG,129.9,T,,M,2.1,N,3.9,K*6A
$GPGSV,4,1,13,03,05,028,16,28,45,150,34,07,31,063,28,08,73,056,36*7D
$GPGSV,4,2,13,10,57,234,36,13,04,108,,15,27,293,27,19,08,053,*7B
$GPGSV,4,3,13,26,11,292,,21,07,324,20,25,13,066,22,24,15,284,26*7F
$GPGSV,4,4,13,27,18,247,29*4D
$GPGGA,153218.0,5006.204246,N,01423.420191,E,1,08,1.2,269.5,M,,,,*0E
$GPRMC,153218.0,A,5006.204246,N,01423.420191,E,2.4,126.6,220409,,,A*64
$GPGSA,A,3,28,07,08,10,15,24,27,255,,,,,2.0,1.2,1.6*05
$GPVTG,126.6,T,,M,2.4,N,4.5,K*64
$GPGSV,4,1,13,03,05,028,,28,45,150,36,07,31,063,28,08,73,056,35*7B
$GPGSV,4,2,13,10,57,234,36,13,04,108,,15,27,293,25,19,08,053,*79
$GPGSV,4,3,13,26,11,292,,21,07,324,20,25,13,066,22,24,15,284,25*7C
$GPGSV,4,4,13,27,18,247,29*4D
$GPGGA,153219.0,5006.203700,N,01423.421277,E,1,08,1.3,269.5,M,,,,*04
$GPRMC,153219.0,A,5006.203700,N,01423.421277,E,2.6,130.8,220409,,,A*64
$GPGSA,A,3,28,07,08,10,15,24,27,255,,,,,2.3,1.3,1.9*08
$GPVTG,130.8,T,,M,2.6,N,4.8,K*62
$GPGSV,4,1,13,03,05,028,,28,45,150,36,07,31,063,25,08,73,056,35*76
$GPGSV,4,2,13,10,57,234,36,13,04,108,,15,27,293,24,19,08,053,*78
$GPGSV,4,3,13,26,11,292,,21,07,324,20,25,13,066,22,24,15,284,25*7C
$GPGSV,4,4,13,27,18,247,29*4D
$GPGGA,153220.0,5006.203132,N,01423.422263,E,1,08,1.3,270.0,M,,,,*02
$GPRMC,153220.0,A,5006.203132,N,01423.422263,E,2.3,131.8,220409,,,A*6B
$GPGSA,A,3,28,07,08,10,15,24,27,255,,,,,2.4,1.3,2.0*05
$GPVTG,131.8,T,,M,2.3,N,4.2,K*6C
$GPGSV,4,1,13,03,05,028,,28,45,150,36,07,31,063,29,08,73,056,36*79
$GPGSV,4,2,13,10,57,234,37,13,04,108,,15,27,293,24,19,08,053,*79
$GPGSV,4,3,13,26,11,292,,21,07,324,21,25,13,066,22,24,15,284,23*7B
$GPGSV,4,4,13,27,18,247,26*42
$GPGGA,153221.0,5006.202508,N,01423.423168,E,1,08,1.1,270.0,M,,,,*04
$GPRMC,153221.0,A,5006.202508,N,01423.423168,E,2.0,128.5,220409,,,A*69
$GPGSA,A,3,28,07,08,10,15,21,24,27,,,,,2.1,1.1,1.8*38
$GPVTG,128.5,T,,M,2.0,N,3.8,K*67
$GPGSV,4,1,13,03,05,028,,28,45,150,35,07,31,063,25,08,73,056,36*76
$GPGSV,4,2,13,10,57,234,36,13,04,108,,15,28,293,24,19,08,053,*77
$GPGSV,4,3,13,26,11,292,,21,07,324,21,25,13,066,22,24,15,284,26*7E
$GPGSV,4,4,13,27,18,247,24*40
$GPGGA,153222.0,5006.202003,N,01423.423928,E,1,08,1.1,270.0,M,,,,*05
$GPRMC,153222.0,A,5006.202003,N,01423.423928,E,2.0,135.6,220409,,,A*67
$GPGSA,A,3,28,07,08,10,15,24,27,255,,,,,2.2,1.1,1.9*0B
$GPVTG,135.6,T,,M,2.0,N,3.6,K*66
$GPGSV,4,1,13,03,05,028,,28,45,150,36,07,31,063,26,08,73,056,36*76
$GPGSV,4,2,13,10,57,234,36,13,04,108,,15,28,293,27,19,08,053,*74
$GPGSV,4,3,13,26,11,292,,21,07,324,21,25,13,066,22,24,15,284,26*7E
$GPGSV,4,4,13,27,18,247,22*46
$GPGGA,153223.0,5006.201447,N,01423.424587,E,1,08,1.1,269.5,M,,,,*00
$GPRMC,153223.0,A,5006.201447,N,01423.424587,E,2.1,140.7,220409,,,A*6D
$GPGSA,A,3,28,07,08,10,15,24,27,255,,,,,2.2,1.1,1.9*0B
$GPVTG,140.7,T,,M,2.1,N,3.9,K*6B
$GPGSV,4,1,13,03,05,028,,28,45,150,35,07,31,063,28,08,73,056,35*78
$GPGSV,4,2,13,10,57,234,29,13,04,108,,15,28,293,24,19,08,053,*79
$GPGSV,4,3,13,26,11,292,,21,07,324,21,25,13,066,22,24,15,284,25*7D
$GPGSV,4,4,13,27,18,247,21*45
$GPGGA,153224.0,5006.200879,N,01423.425250,E,1,08,1.3,269.5,M,,,,*09
$GPRMC,153224.0,A,5006.200879,N,01423.425250,E,2.1,142.3,220409,,,A*60
$GPGSA,A,3,28,07,08,10,15,24,27,255,,,,,2.5,1.3,2.1*05
$GPVTG,142.3,T,,M,2.1,N,4.0,K*63
$GPGSV,4,1,13,03,05,028,,28,45,150,36,07,31,063,28,08,73,056,36*78
$GPGSV,4,2,13,10,57,234,26,13,04,108,,15,28,293,26,19,08,053,*74
$GPGSV,4,3,13,26,11,292,,21,07,324,21,25,13,066,22,24,15,284,25*7D
$GPGSV,4,4,13,27,18,247,21*45
$GPGGA,153225.0,5006.200366,N,01423.425929,E,1,08,1.4,269.5,M,,,,*0F
$GPRMC,153225.0,A,5006.200366,N,01423.425929,E,2.0,140.9,220409,,,A*68
$GPGSA,A,3,28,07,08,10,15,24,27,255,,,,,2.5,1.4,2.1*02
$GPVTG,140.9,T,,M,2.0,N,3.7,K*6A
$GPGSV,4,1,13,03,05,028,,28,45,150,35,07,31,063,25,08,73,056,35*75
$GPGSV,4,2,13,10,57,234,24,13,04,108,,15,28,293,26,19,08,053,*76
$GPGSV,4,3,13,26,11,292,,21,07,324,24,25,13,066,22,24,15,284,26*7B
$GPGSV,4,4,13,27,18,247,26*42
$GPGGA,153226.0,5006.199855,N,01423.426840,E,1,08,1.3,269.5,M,,,,*0E
$GPRMC,153226.0,A,5006.199855,N,01423.426840,E,1.7,121.8,220409,,,A*6C
$GPGSA,A,3,28,07,08,10,15,21,24,27,,,,,2.2,1.3,1.7*36
$GPVTG,121.8,T,,M,1.7,N,3.2,K*6D
$GPGSV,4,1,13,03,05,028,,28,45,150,37,07,31,063,24,08,73,056,35*76
$GPGSV,4,2,13,10,57,234,24,13,04,108,,15,28,293,26,19,08,053,*76
$GPGSV,4,3,13,26,11,292,,21,07,324,23,25,13,066,22,24,15,284,25*7F
$GPGSV,4,4,13,27,18,247,27*43
$GPGGA,153227.0,5006.199405,N,01423.427871,E,1,08,1.4,269.5,M,,,,*02
$GPRMC,153227.0,A,5006.199405,N,01423.427871,E,2.0,115.4,220409,,,A*68
$GPGSA,A,3,28,07,08,10,15,21,24,27,,,,,2.3,1.4,1.8*3F
$GPVTG,115.4,T,,M,2.0,N,3.7,K*67
$GPGSV,4,1,13,03,05,028,,28,45,150,35,07,31,063,28,08,73,056,34*79
$GPGSV,4,2,13,10,57,234,25,13,04,108,,15,28,293,25,19,08,053,*74
$GPGSV,4,3,13,26,11,292,,21,07,324,23,25,13,066,22,24,15,284,24*7E
$GPGSV,4,4,13,27,18,247,29*4D
$GPGGA,153228.0,5006.198973,N,01423.428912,E,1,08,1.3,269.5,M,,,,*0C
$GPRMC,153228.0,A,5006.198973,N,01423.428912,E,2.3,128.1,220409,,,A*69
$GPGSA,A,3,28,07,08,10,15,24,27,255,,,,,2.2,1.3,1.8*08
$GPVTG,128.1,T,,M,2.3,N,4.2,K*6D
$GPGSV,4,1,13,03,05,028,,28,45,150,37,07,31,063,27,08,73,056,35*75
$GPGSV,4,2,13,10,57,234,23,13,04,108,,15,28,293,22,19,08,053,*75
$GPGSV,4,3,13,26,11,292,,21,07,324,23,25,13,066,22,24,15,284,26*7C
$GPGSV,4,4,13,27,18,247,24*40
$GPGGA,153229.0,5006.198337,N,01423.429907,E,1,08,1.3,269.0,M,,,,*07
$GPRMC,153229.0,A,5006.198337,N,01423.429907,E,1.9,135.6,220409,,,A*65
$GPGSA,A,3,28,07,08,10,15,24,27,255,,,,,2.2,1.3,1.8*08
$GPVTG,135.6,T,,M,1.9,N,3.5,K*6F
$GPGSV,4,1,13,03,05,028,,28,45,150,30,07,31,063,26,08,73,056,31*77
$GPGSV,4,2,13,10,57,234,24,13,04,108,,15,28,293,24,19,08,053,*74
$GPGSV,4,3,13,26,11,292,,21,07,324,23,25,13,066,22,24,15,284,24*7E
$GPGSV,4,4,13,27,18,247,22*46
$GPGGA,153230.0,5006.197824,N,01423.430586,E,1,08,1.2,269.0,M,,,,*05
$GPRMC,153230.0,A,5006.197824,N,01423.430586,E,2.2,142.2,220409,,,A*6A
$GPGSA,A,3,28,07,08,10,15,24,27,255,,,,,2.2,1.2,1.8*09
$GPVTG,142.2,T,,M,2.2,N,4.0,K*61
$GPGSV,4,1,13,03,05,028,,28,45,150,27,07,31,063,27,08,73,056,28*78
$GPGSV,4,2,13,10,57,234,25,13,04,108,,15,28,293,25,19,08,053,*74
$GPGSV,4,3,13,26,11,292,,21,07,324,23,25,13,066,22,24,15,284,24*7E
$GPGSV,4,4,13,27,18,247,23*47
$GPGGA,153231.0,5006.197331,N,01423.431265,E,1,08,1.2,269.0,M,,,,*00
$GPRMC,153231.0,A,5006.197331,N,01423.431265,E,2.1,140.6,220409,,,A*6A
$GPGSA,A,3,28,07,08,10,15,24,27,255,,,,,2.1,1.2,1.7*05
$GPVTG,140.6,T,,M,2.1,N,4.0,K*64
$GPGSV,4,1,13,03,05,028,,28,45,150,28,07,31,063,30,08,73,056,27*7E
$GPGSV,4,2,13,10,57,234,24,13,04,108,,15,28,293,28,19,08,053,*78
$GPGSV,4,3,13,26,11,292,,21,07,324,21,25,13,066,22,24,15,284,23*7B
$GPGSV,4,4,13,27,18,247,24*40
$GPGGA,153232.0,5006.196702,N,01423.432020,E,1,08,1.0,269.5,M,,,,*01
$GPRMC,153232.0,A,5006.196702,N,01423.432020,E,2.3,145.1,220409,,,A*6C
$GPGSA,A,3,28,07,08,10,15,21,24,27,,,,,1.9,1.0,1.6*3C
$GPVTG,145.1,T,,M,2.3,N,4.2,K*66
$GPGSV,4,1,13,03,05,028,,28,45,150,30,07,31,063,26,08,73,056,28*7F
$GPGSV,4,2,13,10,57,234,27,13,04,108,,15,28,293,27,19,08,053,*74
$GPGSV,4,3,13,26,11,292,,21,07,324,22,25,13,066,22,24,15,284,24*7F
$GPGSV,4,4,13,27,18,247,22*46
$GPGGA,153233.0,5006.196129,N,01423.432673,E,1,08,1.0,269.5,M,,,,*0F
$GPRMC,153233.0,A,5006.196129,N,01423.432673,E,1.7,141.3,220409,,,A*63
$GPGSA,A,3,28,07,08,10,15,21,24,27,,,,,2.0,1.0,1.6*36
$GPVTG,141.3,T,,M,1.7,N,3.2,K*60
$GPGSV,4,1,13,03,05,028,,28,45,150,30,07,31,063,27,08,73,056,33*74
$GPGSV,4,2,13,10,57,234,33,13,04,108,,15,28,293,28,19,08,053,*7E
$GPGSV,4,3,13,26,11,292,,21,07,324,22,25,13,066,22,24,15,284,21*7A
$GPGSV,4,4,13,27,18,247,25*41
$GPGGA,153234.0,5006.195561,N,01423.433106,E,1,08,1.0,269.5,M,,,,*07
$GPRMC,153234.0,A,5006.195561,N,01423.433106,E,2.4,147.5,220409,,,A*6B
$GPGSA,A,3,28,07,08,10,15,24,27,255,,,,,1.9,1.0,1.6*0D
$GPVTG,147.5,T,,M,2.4,N,4.5,K*60
$GPGSV,4,1,13,03,05,026,,28,45,150,28,07,31,063,26,08,73,056,35*74
$GPGSV,4,2,13,10,57,234,38,13,04,108,,15,28,293,28,19,08,053,*75
$GPGSV,4,3,13,26,11,292,,21,07,324,22,25,13,066,22,24,15,284,21*7A
$GPGSV,4,4,13,27,18,247,20*44
$GPGGA,153235.0,5006.194859,N,01423.433171,E,1,08,1.1,270.0,M,,,,*0D
$GPRMC,153235.0,A,5006.194859,N,01423.433171,E,2.4,153.4,220409,,,A*69
$GPGSA,A,3,28,07,08,10,15,27,255,255,,,,,1.9,1.1,1.6*38
$GPVTG,153.4,T,,M,2.4,N,4.4,K*65
$GPGSV,4,1,13,03,05,026,,28,45,150,35,07,31,063,31,08,73,056,35*7E
$GPGSV,4,2,13,10,57,234,37,13,04,108,,15,28,293,29,19,08,053,*7B
$GPGSV,4,3,13,26,11,292,,21,07,324,22,25,13,066,22,24,15,284,20*7B
$GPGSV,4,4,13,27,18,247,23*47
$GPGGA,153236.0,5006.193984,N,01423.433614,E,1,08,1.1,270.0,M,,,,*0C
$GPRMC,153236.0,A,5006.193984,N,01423.433614,E,2.7,154.6,220409,,,A*6E
$GPGSA,A,3,28,07,08,10,15,24,27,255,,,,,2.2,1.1,1.8*0A
$GPVTG,154.6,T,,M,2.7,N,5.0,K*66
$GPGSV,4,1,13,03,05,026,,28,45,150,37,07,31,063,29,08,73,056,33*73
$GPGSV,4,2,13,10,57,234,38,13,04,108,,15,28,293,26,19,08,053,*7B
$GPGSV,4,3,13,26,11,292,,21,07,324,22,25,13,066,22,24,15,284,24*7F
$GPGSV,4,4,13,27,18,247,22*46
$GPGGA,153237.0,5006.193184,N,01423.434021,E,1,08,1.1,270.0,M,,,,*02
$GPRMC,153237.0,A,5006.193184,N,01423.434021,E,2.8,155.1,220409,,,A*69
$GPGSA,A,3,28,07,08,10,15,24,27,255,,,,,2.2,1.1,1.9*0B
$GPVTG,155.1,T,,M,2.8,N,5.2,K*6D
$GPGSV,4,1,13,03,05,026,,28,45,150,34,07,31,063,22,08,73,056,31*79
$GPGSV,4,2,13,10,57,234,37,13,04,108,,15,28,293,25,19,08,053,*77
$GPGSV,4,3,13,26,11,292,,21,07,324,22,25,13,066,22,24,15,284,22*79
$GPGSV,4,4,13,27,18,247,22*46
$GPGGA,153238.0,5006.192468,N,01423.434539,E,1,08,1.2,270.0,M,,,,*04
$GPRMC,153238.0,A,5006.192468,N,01423.434539,E,2.8,153.2,220409,,,A*69
$GPGSA,A,3,28,07,08,10,15,24,27,255,,,,,2.5,1.2,2.1*04
$GPVTG,153.2,T,,M,2.8,N,5.1,K*6B
$GPGSV,4,1,13,03,05,026,,28,45,150,33,07,31,063,23,08,73,056,34*7A
$GPGSV,4,2,13,10,57,234,37,13,04,108,,15,28,293,24,19,08,053,*76
$GPGSV,4,3,13,26,11,292,,21,07,324,22,25,13,066,22,24,15,284,25*7E
$GPGSV,4,4,13,27,18,247,22*46
$GPGGA,153239.0,5006.191731,N,01423.435037,E,1,08,1.3,270.0,M,,,,*02
$GPRMC,153239.0,A,5006.191731,N,01423.435037,E,2.4,146.9,220409,,,A*6D
$GPGSA,A,3,28,07,08,10,15,24,27,255,,,,,2.5,1.3,2.2*06
$GPVTG,146.9,T,,M,2.4,N,4.5,K*6D
$GPGSV,4,1,13,03,05,026,,28,45,150,35,07,31,063,23,08,73,056,34*7C
$GPGSV,4,2,13,10,57,234,35,13,04,108,,15,28,293,21,19,08,053,*71
$GPGSV,4,3,13,26,11,292,,21,07,324,19,25,13,066,22,24,15,284,21*72
$GPGSV,4,4,13,27,18,247,24*40
$GPGGA,153240.0,5006.191022,N,01423.435801,E,1,07,1.3,270.0,M,,,,*0B
$GPRMC,153240.0,A,5006.191022,N,01423.435801,E,2.6,141.5,220409,,,A*62
$GPGSA,A,3,28,07,08,10,15,24,27,,,,,,2.8,1.3,2.5*3E
$GPVTG,141.5,T,,M,2.6,N,4.8,K*69
$GPGSV,4,1,13,03,05,026,,28,45,150,35,07,31,063,22,08,73,056,35*7C
$GPGSV,4,2,13,10,57,234,35,13,04,108,,15,28,293,21,19,08,053,*71
$GPGSV,4,3,13,26,11,292,,21,07,324,19,25,13,066,22,24,15,284,20*73
$GPGSV,4,4,13,27,18,247,23*47
$GPGGA,153241.0,5006.190353,N,01423.436521,E,1,07,1.3,269.5,M,,,,*0F
$GPRMC,153241.0,A,5006.190353,N,01423.436521,E,2.4,141.6,220409,,,A*6A
$GPGSA,A,3,28,07,08,10,15,24,27,,,,,,3.0,1.3,2.6*34
$GPVTG,141.6,T,,M,2.4,N,4.4,K*64
$GPGSV,4,1,13,03,05,026,,28,45,150,35,07,31,063,24,08,73,056,36*79
$GPGSV,4,2,13,10,57,234,33,13,04,108,,15,28,293,21,19,08,053,*77
$GPGSV,4,3,13,26,11,292,,21,07,324,18,25,13,066,22,24,15,284,21*73
$GPGSV,4,4,13,27,18,247,22*46
$GPGGA,153242.0,5006.189860,N,01423.437114,E,1,08,1.1,269.0,M,,,,*04
$GPRMC,153242.0,A,5006.189860,N,01423.437114,E,1.8,130.9,220409,,,A*6F
$GPGSA,A,3,28,07,08,10,15,21,24,27,,,,,2.4,1.1,2.1*37
$GPVTG,130.9,T,,M,1.8,N,3.3,K*62
$GPGSV,4,1,13,03,05,026,,28,45,150,35,07,31,063,23,08,73,056,35*7D
$GPGSV,4,2,13,10,57,233,35,13,04,108,,15,28,293,22,19,08,053,*75
$GPGSV,4,3,13,26,12,292,24,21,07,324,18,25,13,066,22,24,15,284,24*73
$GPGSV,4,4,13,27,18,247,26*42
$GPGGA,153243.0,5006.189468,N,01423.437863,E,1,08,1.1,268.5,M,,,,*0C
$GPRMC,153243.0,A,5006.189468,N,01423.437863,E,1.8,120.0,220409,,,A*6B
$GPGSA,A,3,28,07,08,10,15,24,27,255,,,,,2.4,1.1,2.1*06
$GPVTG,120.0,T,,M,1.8,N,3.3,K*6A
$GPGSV,4,1,13,03,05,026,,28,45,150,37,07,31,063,22,08,73,056,35*7E
$GPGSV,4,2,13,10,57,233,33,13,04,108,,15,28,293,21,19,08,053,*70
$GPGSV,4,3,13,26,12,292,24,21,07,324,18,25,13,066,22,24,15,284,25*72
$GPGSV,4,4,13,27,18,247,28*4C
$GPGGA,153244.0,5006.189033,N,01423.439025,E,1,09,1.0,268.5,M,,,,*05
$GPRMC,153244.0,A,5006.189033,N,01423.439025,E,1.9,104.7,220409,,,A*62
$GPGSA,A,3,28,07,08,10,15,26,24,27,255,,,,2.0,1.0,1.7*02
$GPVTG,104.7,T,,M,1.9,N,3.5,K*6C
$GPGSV,4,1,13,03,05,026,,28,45,150,37,07,31,063,24,08,73,056,35*78
$GPGSV,4,2,13,10,57,233,29,13,04,108,,15,28,293,21,19,08,053,*7B
$GPGSV,4,3,13,26,12,292,24,21,07,324,18,25,13,066,22,24,15,284,24*73
$GPGSV,4,4,13,27,18,247,29*4D
$GPGGA,153245.0,5006.188867,N,01423.440192,E,1,09,1.4,268.5,M,,,,*0B
$GPRMC,153245.0,A,5006.188867,N,01423.440192,E,1.6,89.0,220409,,,A*54
$GPGSA,A,3,28,07,08,10,15,26,24,27,255,,,,2.5,1.4,2.1*06
$GPVTG,89.0,T,,M,1.6,N,3.0,K*55
$GPGSV,4,1,13,03,05,026,,28,45,150,36,07,31,063,24,08,73,056,35*79
$GPGSV,4,2,13,10,57,233,28,13,04,108,,15,28,293,23,19,08,053,*78
$GPGSV,4,3,13,26,12,292,25,21,07,324,18,25,13,066,22,24,15,284,27*71
$GPGSV,4,4,13,27,18,247,29*4D
$GPGGA,153246.0,5006.188661,N,01423.441293,E,1,09,1.4,268.5,M,,,,*03
$GPRMC,153246.0,A,5006.188661,N,01423.441293,E,1.5,87.8,220409,,,A*59
$GPGSA,A,3,28,07,08,10,15,26,24,27,255,,,,2.6,1.4,2.2*06
$GPVTG,87.8,T,,M,1.5,N,2.9,K*58
$GPGSV,4,1,13,03,05,026,,28,45,150,37,07,31,063,26,08,73,056,34*7B
$GPGSV,4,2,13,10,57,233,28,13,04,108,,15,28,293,29,19,08,053,*72
$GPGSV,4,3,13,26,12,292,25,21,07,324,18,25,13,066,22,24,15,284,26*70
$GPGSV,4,4,13,27,18,247,27*43
$GPGGA,153247.0,5006.188573,N,01423.442178,E,1,09,1.4,268.5,M,,,,*07
$GPRMC,153247.0,A,5006.188573,N,01423.442178,E,1.5,77.1,220409,,,A*5B
$GPGSA,A,3,28,07,08,10,15,26,24,27,255,,,,2.6,1.4,2.2*06
$GPVTG,77.1,T,,M,1.5,N,2.7,K*50
$GPGSV,4,1,13,03,05,026,,28,45,150,39,07,31,063,24,08,73,056,35*76
$GPGSV,4,2,13,10,57,233,28,13,04,108,,15,28,293,36,19,08,053,*7C
$GPGSV,4,3,13,26,12,292,26,21,07,324,18,25,13,066,22,24,15,284,26*73
$GPGSV,4,4,13,27,18,247,24*40
$GPGGA,153248.0,5006.188633,N,01423.442797,E,1,09,1.4,268.0,M,,,,*0D
$GPRMC,153248.0,A,5006.188633,N,01423.442797,E,1.4,90.0,220409,,,A*5D
$GPGSA,A,3,28,07,08,10,15,26,24,27,255,,,,2.6,1.4,2.2*06
$GPVTG,90.0,T,,M,1.4,N,2.6,K*58
$GPGSV,4,1,13,03,05,026,,28,45,150,34,07,31,063,23,08,73,056,34*7D
$GPGSV,4,2,13,10,57,233,24,13,04,108,,15,28,293,33,19,08,053,*75
$GPGSV,4,3,13,26,12,292,26,21,07,324,18,25,13,066,22,24,15,284,24*71
$GPGSV,4,4,13,27,18,247,24*40
$GPGGA,153249.0,5006.188366,N,01423.443365,E,1,08,1.6,268.0,M,,,,*02
$GPRMC,153249.0,A,5006.188366,N,01423.443365,E,1.5,128.5,220409,,,A*67
$GPGSA,A,3,28,07,08,10,15,26,24,27,,,,,2.8,1.6,2.3*39
$GPVTG,128.5,T,,M,1.5,N,2.7,K*6F
$GPGSV,4,1,13,03,05,026,,28,45,150,35,07,31,063,24,08,73,056,35*7A
$GPGSV,4,2,13,10,57,233,27,13,04,108,,15,28,293,26,19,08,053,*72
$GPGSV,4,3,13,26,12,292,22,21,07,324,18,25,13,066,22,24,15,284,25*74
$GPGSV,4,4,13,27,18,247,26*42
$GPGGA,153250.0,5006.187884,N,01423.444140,E,1,08,1.5,268.0,M,,,,*03
$GPRMC,153250.0,A,5006.187884,N,01423.444140,E,1.7,134.3,220409,,,A*6C
$GPGSA,A,3,28,07,08,10,15,26,24,27,,,,,2.8,1.5,2.3*3A
$GPVTG,134.3,T,,M,1.7,N,3.1,K*61
$GPGSV,4,1,13,03,05,026,,28,45,150,37,07,31,063,27,08,73,056,35*7B
$GPGSV,4,2,13,10,57,233,30,13,04,108,,15,28,293,26,19,08,053,*74
$GPGSV,4,3,13,26,12,292,23,21,07,324,18,25,13,066,22,24,15,284,23*73
$GPGSV,4,4,13,27,18,247,26*42
$GPGGA,153251.0,5006.187454,N,01423.444990,E,1,08,1.4,268.0,M,,,,*07
$GPRMC,153251.0,A,5006.187454,N,01423.444990,E,2.2,126.9,220409,,,A*66
$GPGSA,A,3,28,07,08,10,15,26,24,27,,,,,2.6,1.4,2.2*34
$GPVTG,126.9,T,,M,2.2,N,4.1,K*69
$GPGSV,4,1,13,03,05,026,,28,45,150,38,07,31,063,28,08,73,056,35*7B
$GPGSV,4,2,13,10,57,233,33,13,04,108,,15,28,293,28,19,08,053,*79
$GPGSV,4,3,13,26,12,292,24,21,07,324,18,25,13,066,22,24,15,284,24*73
$GPGSV,4,4,13,27,18,247,27*43
$GPGGA,153252.0,5006.186920,N,01423.445965,E,1,08,1.4,267.5,M,,,,*0A
$GPRMC,153252.0,A,5006.186920,N,01423.445965,E,2.3,125.1,220409,,,A*6B
$GPGSA,A,3,28,07,08,10,15,26,24,27,,,,,2.6,1.4,2.1*37
$GPVTG,125.1,T,,M,2.3,N,4.3,K*61
$GPGSV,4,1,13,03,05,026,,28,45,150,37,07,31,063,28,08,73,056,34*75
$GPGSV,4,2,13,10,57,233,36,13,04,108,,15,28,293,25,19,08,053,*71
$GPGSV,4,3,13,26,12,292,22,21,07,324,18,25,13,066,22,24,15,284,24*75
$GPGSV,4,4,13,27,18,247,26*42
$GPGGA,153253.0,5006.186337,N,01423.446891,E,1,08,1.3,267.5,M,,,,*09
$GPRMC,153253.0,A,5006.186337,N,01423.446891,E,2.3,127.6,220409,,,A*6A
$GPGSA,A,3,28,07,08,10,15,26,24,27,,,,,2.4,1.3,2.0*33
$GPVTG,127.6,T,,M,2.3,N,4.2,K*65
$GPGSV,4,1,13,03,05,026,,28,45,150,36,07,31,063,28,08,73,056,35*75
$GPGSV,4,2,13,10,57,233,37,13,04,108,,15,28,293,25,19,08,053,*70
$GPGSV,4,3,13,26,12,292,23,21,07,324,18,25,13,066,22,24,15,284,22*72
$GPGSV,4,4,13,27,18,247,22*46
$GPGGA,153254.0,5006.185802,N,01423.447700,E,1,08,1.2,267.0,M,,,,*02
$GPRMC,153254.0,A,5006.185802,N,01423.447700,E,2.2,132.3,220409,,,A*65
$GPGSA,A,3,28,07,08,10,15,26,24,27,,,,,2.3,1.2,2.0*35
$GPVTG,132.3,T,,M,2.2,N,4.1,K*66
$GPGSV,4,1,13,03,05,026,,28,45,150,38,07,31,063,27,08,73,056,35*74
$GPGSV,4,2,13,10,57,233,36,13,04,108,,15,28,293,26,19,08,053,*72
$GPGSV,4,3,13,26,12,292,23,21,07,324,18,25,13,066,22,24,15,284,21*71
$GPGSV,4,4,13,27,18,247,24*40
$GPGGA,153255.0,5006.185228,N,01423.448485,E,1,08,1.2,266.5,M,,,,*04
$GPRMC,153255.0,A,5006.185228,N,01423.448485,E,2.6,135.5,220409,,,A*62
$GPGSA,A,3,28,07,08,10,15,24,27,255,,,,,2.3,1.2,2.0*03
$GPVTG,135.5,T,,M,2.6,N,4.9,K*6B
$GPGSV,4,1,13,03,05,026,,28,45,150,36,07,31,063,29,08,73,056,36*77
$GPGSV,4,2,13,10,57,233,37,13,04,108,,15,28,293,26,19,08,053,*73
$GPGSV,4,3,13,26,12,292,23,21,07,324,18,25,13,066,22,24,15,284,20*70
$GPGSV,4,4,13,27,18,247,25*41
$GPGGA,153256.0,5006.184652,N,01423.449385,E,1,08,1.1,266.5,M,,,,*0A
$GPRMC,153256.0,A,5006.184652,N,01423.449385,E,2.6,135.9,220409,,,A*63
$GPGSA,A,3,28,07,08,10,15,26,24,27,,,,,2.2,1.1,1.9*3D
$GPVTG,135.9,T,,M,2.6,N,4.7,K*69
$GPGSV,4,1,13,03,05,026,,28,45,150,36,07,31,063,29,08,73,056,35*74
$GPGSV,4,2,13,10,57,233,38,13,04,108,,15,28,293,27,19,08,053,*7D
$GPGSV,4,3,13,26,12,292,22,21,07,324,18,25,13,066,22,24,15,284,20*71
$GPGSV,4,4,13,27,19,247,24*41
$GPGGA,153257.0,5006.184102,N,01423.450492,E,1,08,1.1,266.5,M,,,,*00
$GPRMC,153257.0,A,5006.184102,N,01423.450492,E,2.7,133.7,220409,,,A*60
$GPGSA,A,3,28,07,08,10,15,26,27,255,,,,,2.2,1.1,1.9*09
$GPVTG,133.7,T,,M,2.7,N,5.0,K*66
$GPGSV,4,1,13,03,05,026,,28,45,150,36,07,31,063,28,08,73,056,36*76
$GPGSV,4,2,13,10,57,233,38,13,04,108,,15,28,293,25,19,08,053,*7F
$GPGSV,4,3,13,26,12,292,21,21,07,324,18,25,13,066,22,24,15,284,20*72
$GPGSV,4,4,13,27,19,247,22*47
$GPGGA,153258.0,5006.183531,N,01423.451321,E,1,08,1.1,266.5,M,,,,*02
